[
	{
		"id": "ABE",
		"name": "Aberdeen",
		"code": "ABE",
		"city": "Aberdeen",
		"stateShort": "MD",
		"stateLong": "Maryland",
		"routes": ["Northeast-Regional"],
		"lat": "39.5083",
		"lon": "-76.1633"
	},
	{
		"id": "ALY",
		"name": "Albany",
		"code": "ALY",
		"city": "Albany",
		"stateShort": "OR",
		"stateLong": "Oregon",
		"routes": ["Amtrak-Cascades", "Coast-Starlight"],
		"lat": "44.6303",
		"lon": "-123.1025"
	},
	{
		"id": "ALB",
		"name": "Albany–Rensselaer",
		"code": "ALB",
		"city": "Rensselaer",
		"stateShort": "NY",
		"stateLong": "New York",
		"routes": [
			"Adirondack",
			"Berkshire-Flyer",
			"Empire-Service",
			"Ethan-Allen-Express",
			"Lake-Shore-Limited",
			"Maple-Leaf"
		],
		"lat": "42.6414",
		"lon": "-73.7411"
	},
	{
		"id": "ALI",
		"name": "Albion",
		"code": "ALI",
		"city": "Albion",
		"stateShort": "MI",
		"stateLong": "Michigan",
		"routes": ["Wolverine"],
		"lat": "42.2472",
		"lon": "-84.7561"
	},
	{
		"id": "ABQ",
		"name": "Albuquerque",
		"code": "ABQ",
		"city": "Albuquerque",
		"stateShort": "NM",
		"stateLong": "New Mexico",
		"routes": ["Southwest-Chief"],
		"lat": "35.0833",
		"lon": "-106.6478"
	},
	{
		"id": "AST",
		"name": "Aldershot",
		"code": "AST",
		"city": "Aldershot",
		"stateShort": "ON",
		"stateLong": "Ontario",
		"routes": ["Maple-Leaf"],
		"lat": "43.3133",
		"lon": "-79.8556"
	},
	{
		"id": "ALD",
		"name": "Alderson",
		"code": "ALD",
		"city": "Alderson",
		"stateShort": "WV",
		"stateLong": "West Virginia",
		"routes": ["Cardinal"],
		"lat": "37.7242",
		"lon": "-80.6444"
	},
	{
		"id": "ALX",
		"name": "Alexandria",
		"code": "ALX",
		"city": "Alexandria",
		"stateShort": "VA",
		"stateLong": "Virginia",
		"routes": [
			"Cardinal",
			"Carolinian",
			"Crescent",
			"Northeast-Regional",
			"Palmetto",
			"Silver-Meteor",
			"Silver-Star"
		],
		"lat": "38.8064",
		"lon": "-77.0622"
	},
	{
		"id": "CNL",
		"name": "Allensworth State Park",
		"code": "CNL",
		"city": "Allensworth",
		"stateShort": "CA",
		"stateLong": "California",
		"routes": ["San-Joaquins"],
		"lat": "35.8636",
		"lon": "-119.3889"
	},
	{
		"id": "ALC",
		"name": "Alliance",
		"code": "ALC",
		"city": "Alliance",
		"stateShort": "OH",
		"stateLong": "Ohio",
		"routes": ["Capitol-Limited"],
		"lat": "40.9214",
		"lon": "-81.0931"
	},
	{
		"id": "ALP",
		"name": "Alpine",
		"code": "ALP",
		"city": "Alpine",
		"stateShort": "TX",
		"stateLong": "Texas",
		"routes": ["Sunset-Limited", "Texas-Eagle"],
		"lat": "30.3572",
		"lon": "-103.6617"
	},
	{
		"id": "ALN",
		"name": "Alton",
		"code": "ALN",
		"city": "Alton",
		"stateShort": "IL",
		"stateLong": "Illinois",
		"routes": ["Lincoln-Service", "Texas-Eagle"],
		"lat": "38.9211",
		"lon": "-90.1572"
	},
	{
		"id": "ALT",
		"name": "Altoona",
		"code": "ALT",
		"city": "Altoona",
		"stateShort": "PA",
		"stateLong": "Pennsylvania",
		"routes": ["Pennsylvanian"],
		"lat": "40.5156",
		"lon": "-78.4011"
	},
	{
		"id": "AMS",
		"name": "Amsterdam",
		"code": "AMS",
		"city": "Amsterdam",
		"stateShort": "NY",
		"stateLong": "New York",
		"routes": ["Empire-Service", "Maple-Leaf"],
		"lat": "42.9536",
		"lon": "-74.2194"
	},
	{
		"id": "ANA",
		"name": "Anaheim",
		"code": "ANA",
		"city": "Anaheim",
		"stateShort": "CA",
		"stateLong": "California",
		"routes": ["Pacific-Surfliner"],
		"lat": "33.8033",
		"lon": "-117.8775"
	},
	{
		"id": "ARB",
		"name": "Ann Arbor",
		"code": "ARB",
		"city": "Ann Arbor",
		"stateShort": "MI",
		"stateLong": "Michigan",
		"routes": ["Wolverine"],
		"lat": "42.2878",
		"lon": "-83.7431"
	},
	{
		"id": "ATN",
		"name": "Anniston",
		"code": "ATN",
		"city": "Anniston",
		"stateShort": "AL",
		"stateLong": "Alabama",
		"routes": ["Crescent"],
		"lat": "33.6492",
		"lon": "-85.8322"
	},
	{
		"id": "ACA",
		"name": "Antioch–Pittsburg",
		"code": "ACA",
		"city": "Antioch",
		"stateShort": "CA",
		"stateLong": "California",
		"routes": ["San-Joaquins"],
		"lat": "38.0181",
		"lon": "-121.8169"
	},
	{
		"id": "ACD",
		"name": "Arcadia Valley",
		"code": "ACD",
		"city": "Ironton",
		"stateShort": "MO",
		"stateLong": "Missouri",
		"routes": ["Texas-Eagle"],
		"lat": "37.5922",
		"lon": "-90.6244"
	},
	{
		"id": "ADM",
		"name": "Ardmore",
		"code": "ADM",
		"city": "Ardmore",
		"stateShort": "OK",
		"stateLong": "Oklahoma",
		"routes": ["Heartland-Flyer"],
		"lat": "34.1722",
		"lon": "-97.1256"
	},
	{
		"id": "ARD",
		"name": "Ardmore",
		"code": "ARD",
		"city": "Ardmore",
		"stateShort": "PA",
		"stateLong": "Pennsylvania",
		"routes": ["Keystone-Service"],
		"lat": "40.0083",
		"lon": "-75.2903"
	},
	{
		"id": "ARK",
		"name": "Arkadelphia",
		"code": "ARK",
		"city": "Arkadelphia",
		"stateShort": "AR",
		"stateLong": "Arkansas",
		"routes": ["Texas-Eagle"],
		"lat": "34.1142",
		"lon": "-93.0528"
	},
	{
		"id": "AKY",
		"name": "Ashland",
		"code": "AKY",
		"city": "Ashland",
		"stateShort": "KY",
		"stateLong": "Kentucky",
		"routes": ["Cardinal"],
		"lat": "38.4808",
		"lon": "-82.6394"
	},
	{
		"id": "ASD",
		"name": "Ashland",
		"code": "ASD",
		"city": "Ashland",
		"stateShort": "VA",
		"stateLong": "Virginia",
		"routes": ["Northeast-Regional"],
		"lat": "37.7597",
		"lon": "-77.4811"
	},
	{
		"id": "ATL",
		"name": "Atlanta Peachtree",
		"code": "ATL",
		"city": "Atlanta",
		"stateShort": "GA",
		"stateLong": "Georgia",
		"routes": ["Crescent"],
		"lat": "33.7994",
		"lon": "-84.3928"
	},
	{
		"id": "ARN",
		"name": "Auburn",
		"code": "ARN",
		"city": "Auburn",
		"stateShort": "CA",
		"stateLong": "California",
		"routes": ["Capitol-Corridor"],
		"lat": "38.9036",
		"lon": "-121.0833"
	},
	{
		"id": "AUS",
		"name": "Austin",
		"code": "AUS",
		"city": "Austin",
		"stateShort": "TX",
		"stateLong": "Texas",
		"routes": ["Texas-Eagle"],
		"lat": "30.2697",
		"lon": "-97.7569"
	},
	{
		"id": "BFD",
		"name": "Bakersfield",
		"code": "BFD",
		"city": "Bakersfield",
		"stateShort": "CA",
		"stateLong": "California",
		"routes": ["San-Joaquins"],
		"lat": "35.3722",
		"lon": "-119.0097"
	},
	{
		"id": "BAL",
		"name": "Baltimore Penn",
		"code": "BAL",
		"city": "Baltimore",
		"stateShort": "MD",
		"stateLong": "Maryland",
		"routes": [
			"Acela",
			"Cardinal",
			"Carolinian",
			"Crescent",
			"Northeast-Regional",
			"Palmetto",
			"Silver-Meteor",
			"Silver-Star",
			"Vermonter"
		],
		"lat": "39.3075",
		"lon": "-76.6156"
	},
	{
		"id": "BAM",
		"name": "Bangor",
		"code": "BAM",
		"city": "Bangor",
		"stateShort": "MI",
		"stateLong": "Michigan",
		"routes": ["Pere-Marquette"],
		"lat": "42.3142",
		"lon": "-86.1117"
	},
	{
		"id": "BAR",
		"name": "Barstow",
		"code": "BAR",
		"city": "Barstow",
		"stateShort": "CA",
		"stateLong": "California",
		"routes": ["Southwest-Chief"],
		"lat": "34.9047",
		"lon": "-117.0247"
	},
	{
		"id": "BTL",
		"name": "Battle Creek",
		"code": "BTL",
		"city": "Battle Creek",
		"stateShort": "MI",
		"stateLong": "Michigan",
		"routes": ["Blue-Water", "Wolverine"],
		"lat": "42.3181",
		"lon": "-85.1878"
	},
	{
		"id": "BMT",
		"name": "Beaumont",
		"code": "BMT",
		"city": "Beaumont",
		"stateShort": "TX",
		"stateLong": "Texas",
		"routes": ["Sunset-Limited"],
		"lat": "30.0764",
		"lon": "-94.1275"
	},
	{
		"id": "BEL",
		"name": "Bellingham Fairhaven",
		"code": "BEL",
		"city": "Bellingham",
		"stateShort": "WA",
		"stateLong": "Washington",
		"routes": ["Amtrak-Cascades"],
		"lat": "48.7206",
		"lon": "-122.5111"
	},
	{
		"id": "BLF",
		"name": "Bellows Falls",
		"code": "BLF",
		"city": "Bellows Falls",
		"stateShort": "VT",
		"stateLong": "Vermont",
		"routes": ["Vermonter"],
		"lat": "43.1364",
		"lon": "-72.4447"
	},
	{
		"id": "BEN",
		"name": "Benson",
		"code": "BEN",
		"city": "Benson",
		"stateShort": "AZ",
		"stateLong": "Arizona",
		"routes": ["Sunset-Limited", "Texas-Eagle"],
		"lat": "31.9689",
		"lon": "-110.2972"
	},
	{
		"id": "BKY",
		"name": "Berkeley",
		"code": "BKY",
		"city": "Berkeley",
		"stateShort": "CA",
		"stateLong": "California",
		"routes": ["Capitol-Corridor"],
		"lat": "37.8672",
		"lon": "-122.3008"
	},
	{
		"id": "BER",
		"name": "Berlin",
		"code": "BER",
		"city": "Berlin",
		"stateShort": "CT",
		"stateLong": "Connecticut",
		"routes": ["Hartford-Line", "Northeast-Regional", "Valley-Flyer"],
		"lat": "41.6356",
		"lon": "-72.7653"
	},
	{
		"id": "BNG",
		"name": "Bingen–White Salmon",
		"code": "BNG",
		"city": "Bingen",
		"stateShort": "WA",
		"stateLong": "Washington",
		"routes": ["Empire-Builder"],
		"lat": "45.715",
		"lon": "-121.4689"
	},
	{
		"id": "BHM",
		"name": "Birmingham",
		"code": "BHM",
		"city": "Birmingham",
		"stateShort": "AL",
		"stateLong": "Alabama",
		"routes": ["Crescent"],
		"lat": "33.5122",
		"lon": "-86.8072"
	},
	{
		"id": "BNL",
		"name": "Bloomington–Normal",
		"code": "BNL",
		"city": "Normal",
		"stateShort": "IL",
		"stateLong": "Illinois",
		"routes": ["Lincoln-Service", "Texas-Eagle"],
		"lat": "40.5086",
		"lon": "-88.9842"
	},
	{
		"id": "BBY",
		"name": "Boston Back Bay",
		"code": "BBY",
		"city": "Boston",
		"stateShort": "MA",
		"stateLong": "Massachusetts",
		"routes": ["Acela", "Lake-Shore-Limited", "Northeast-Regional"],
		"lat": "42.3472",
		"lon": "-71.0756"
	},
	{
		"id": "BON",
		"name": "Boston North",
		"code": "BON",
		"city": "Boston",
		"stateShort": "MA",
		"stateLong": "Massachusetts",
		"routes": ["Downeaster"],
		"lat": "42.3664",
		"lon": "-71.0622"
	},
	{
		"id": "BOS",
		"name": "Boston South",
		"code": "BOS",
		"city": "Boston",
		"stateShort": "MA",
		"stateLong": "Massachusetts",
		"routes": ["Acela", "Lake-Shore-Limited", "Northeast-Regional"],
		"lat": "42.3519",
		"lon": "-71.0553"
	},
	{
		"id": "BRA",
		"name": "Brattleboro",
		"code": "BRA",
		"city": "Brattleboro",
		"stateShort": "VT",
		"stateLong": "Vermont",
		"routes": ["Vermonter"],
		"lat": "42.8508",
		"lon": "-72.5567"
	},
	{
		"id": "BRP",
		"name": "Bridgeport",
		"code": "BRP",
		"city": "Bridgeport",
		"stateShort": "CT",
		"stateLong": "Connecticut",
		"routes": ["Northeast-Regional", "Vermonter"],
		"lat": "41.1778",
		"lon": "-73.1872"
	},
	{
		"id": "BRH",
		"name": "Brookhaven",
		"code": "BRH",
		"city": "Brookhaven",
		"stateShort": "MS",
		"stateLong": "Mississippi",
		"routes": ["City-of-New-Orleans"],
		"lat": "31.5831",
		"lon": "-90.4411"
	},
	{
		"id": "BRO",
		"name": "Browning",
		"code": "BRO",
		"city": "Browning",
		"stateShort": "MT",
		"stateLong": "Montana",
		"routes": ["Empire-Builder"],
		"lat": "48.5339",
		"lon": "-113.0133"
	},
	{
		"id": "BRK",
		"name": "Brunswick",
		"code": "BRK",
		"city": "Brunswick",
		"stateShort": "ME",
		"stateLong": "Maine",
		"routes": ["Downeaster"],
		"lat": "43.9114",
		"lon": "-69.9658"
	},
	{
		"id": "BYN",
		"name": "Bryan",
		"code": "BYN",
		"city": "Bryan",
		"stateShort": "OH",
		"stateLong": "Ohio",
		"routes": ["Lake-Shore-Limited"],
		"lat": "41.4803",
		"lon": "-84.5517"
	},
	{
		"id": "BUF",
		"name": "Buffalo–Depew",
		"code": "BUF",
		"city": "Depew",
		"stateShort": "NY",
		"stateLong": "New York",
		"routes": ["Empire-Service", "Lake-Shore-Limited", "Maple-Leaf"],
		"lat": "42.9072",
		"lon": "-78.7267"
	},
	{
		"id": "BFX",
		"name": "Buffalo–Exchange Street",
		"code": "BFX",
		"city": "Buffalo",
		"stateShort": "NY",
		"stateLong": "New York",
		"routes": ["Empire-Service", "Maple-Leaf"],
		"lat": "42.8783",
		"lon": "-78.8739"
	},
	{
		"id": "BUR",
		"name": "Burbank Airport-South",
		"code": "BUR",
		"city": "Burbank",
		"stateShort": "CA",
		"stateLong": "California",
		"routes": ["Coast-Starlight", "Pacific-Surfliner"],
		"lat": "34.1928",
		"lon": "-118.3522"
	},
	{
		"id": "BBK",
		"name": "Burbank Downtown",
		"code": "BBK",
		"city": "Burbank",
		"stateShort": "CA",
		"stateLong": "California",
		"routes": ["Pacific-Surfliner"],
		"lat": "34.1786",
		"lon": "-118.3119"
	},
	{
		"id": "BCV",
		"name": "Burke Centre",
		"code": "BCV",
		"city": "Burke",
		"stateShort": "VA",
		"stateLong": "Virginia",
		"routes": ["Northeast-Regional"],
		"lat": "38.7975",
		"lon": "-77.2983"
	},
	{
		"id": "BRL",
		"name": "Burlington",
		"code": "BRL",
		"city": "Burlington",
		"stateShort": "IA",
		"stateLong": "Iowa",
		"routes": ["California-Zephyr"],
		"lat": "40.8056",
		"lon": "-91.1017"
	},
	{
		"id": "BNC",
		"name": "Burlington",
		"code": "BNC",
		"city": "Burlington",
		"stateShort": "NC",
		"stateLong": "North Carolina",
		"routes": ["Carolinian", "Piedmont"],
		"lat": "36.095",
		"lon": "-79.4353"
	},
	{
		"id": "BTN",
		"name": "Burlington",
		"code": "BTN",
		"city": "Burlington",
		"stateShort": "VT",
		"stateLong": "Vermont",
		"routes": ["Ethan-Allen-Express"],
		"lat": "44.4758",
		"lon": "-73.2194"
	},
	{
		"id": "BWI",
		"name": "BWI Thurgood Marshall Airport",
		"code": "BWI",
		"city": "Linthicum",
		"stateShort": "MD",
		"stateLong": "Maryland",
		"routes": [
			"Acela",
			"Crescent",
			"Northeast-Regional",
			"Palmetto",
			"Vermonter"
		],
		"lat": "39.1925",
		"lon": "-76.6947"
	},
	{
		"id": "CML",
		"name": "Camarillo",
		"code": "CML",
		"city": "Camarillo",
		"stateShort": "CA",
		"stateLong": "California",
		"routes": ["Pacific-Surfliner"],
		"lat": "34.2164",
		"lon": "-119.0336"
	},
	{
		"id": "CAM",
		"name": "Camden",
		"code": "CAM",
		"city": "Camden",
		"stateShort": "SC",
		"stateLong": "South Carolina",
		"routes": ["Silver-Star"],
		"lat": "34.2481",
		"lon": "-80.625"
	},
	{
		"id": "CDL",
		"name": "Carbondale",
		"code": "CDL",
		"city": "Carbondale",
		"stateShort": "IL",
		"stateLong": "Illinois",
		"routes": ["City-of-New-Orleans", "Illini", "Saluki"],
		"lat": "37.7242",
		"lon": "-89.2164"
	},
	{
		"id": "CRV",
		"name": "Carlinville",
		"code": "CRV",
		"city": "Carlinville",
		"stateShort": "IL",
		"stateLong": "Illinois",
		"routes": ["Lincoln-Service", "Texas-Eagle"],
		"lat": "39.2794",
		"lon": "-89.8889"
	},
	{
		"id": "CPN",
		"name": "Carpinteria",
		"code": "CPN",
		"city": "Carpinteria",
		"stateShort": "CA",
		"stateLong": "California",
		"routes": ["Pacific-Surfliner"],
		"lat": "34.3961",
		"lon": "-119.5225"
	},
	{
		"id": "CYN",
		"name": "Cary",
		"code": "CYN",
		"city": "Cary",
		"stateShort": "NC",
		"stateLong": "North Carolina",
		"routes": ["Carolinian", "Piedmont", "Silver-Star"],
		"lat": "35.7886",
		"lon": "-78.7814"
	},
	{
		"id": "CNV",
		"name": "Castleton",
		"code": "CNV",
		"city": "Castleton",
		"stateShort": "VT",
		"stateLong": "Vermont",
		"routes": ["Ethan-Allen-Express"],
		"lat": "43.6133",
		"lon": "-73.1714"
	},
	{
		"id": "CEN",
		"name": "Centralia",
		"code": "CEN",
		"city": "Centralia",
		"stateShort": "IL",
		"stateLong": "Illinois",
		"routes": ["City-of-New-Orleans", "Illini", "Saluki"],
		"lat": "38.5275",
		"lon": "-89.1361"
	},
	{
		"id": "CTL",
		"name": "Centralia",
		"code": "CTL",
		"city": "Centralia",
		"stateShort": "WA",
		"stateLong": "Washington",
		"routes": ["Amtrak-Cascades", "Coast-Starlight"],
		"lat": "46.7175",
		"lon": "-122.9528"
	},
	{
		"id": "CHM",
		"name": "Champaign–Urbana",
		"code": "CHM",
		"city": "Champaign",
		"stateShort": "IL",
		"stateLong": "Illinois",
		"routes": ["City-of-New-Orleans", "Illini", "Saluki"],
		"lat": "40.1158",
		"lon": "-88.2411"
	},
	{
		"id": "CHS",
		"name": "Charleston",
		"code": "CHS",
		"city": "North Charleston",
		"stateShort": "SC",
		"stateLong": "South Carolina",
		"routes": ["Palmetto", "Silver-Meteor"],
		"lat": "32.8747",
		"lon": "-79.9981"
	},
	{
		"id": "CHW",
		"name": "Charleston",
		"code": "CHW",
		"city": "Charleston",
		"stateShort": "WV",
		"stateLong": "West Virginia",
		"routes": ["Cardinal"],
		"lat": "38.3464",
		"lon": "-81.6383"
	},
	{
		"id": "CLT",
		"name": "Charlotte",
		"code": "CLT",
		"city": "Charlotte",
		"stateShort": "NC",
		"stateLong": "North Carolina",
		"routes": ["Carolinian", "Crescent", "Piedmont"],
		"lat": "35.2411",
		"lon": "-80.8228"
	},
	{
		"id": "CVS",
		"name": "Charlottesville",
		"code": "CVS",
		"city": "Charlottesville",
		"stateShort": "VA",
		"stateLong": "Virginia",
		"routes": ["Cardinal", "Crescent", "Northeast-Regional"],
		"lat": "38.0314",
		"lon": "-78.4919"
	},
	{
		"id": "CWT",
		"name": "Chatsworth",
		"code": "CWT",
		"city": "Chatsworth",
		"stateShort": "CA",
		"stateLong": "California",
		"routes": ["Pacific-Surfliner"],
		"lat": "34.2528",
		"lon": "-118.5994"
	},
	{
		"id": "CMO",
		"name": "Chemult",
		"code": "CMO",
		"city": "Chemult",
		"stateShort": "OR",
		"stateLong": "Oregon",
		"routes": ["Coast-Starlight"],
		"lat": "43.2167",
		"lon": "-121.7814"
	},
	{
		"id": "CHI",
		"name": "Chicago Union",
		"code": "CHI",
		"city": "Chicago",
		"stateShort": "IL",
		"stateLong": "Illinois",
		"routes": [
			"Blue-Water",
			"California-Zephyr",
			"Capitol-Limited",
			"Cardinal",
			"City-of-New-Orleans",
			"Empire-Builder",
			"Hiawatha-Service",
			"Illini",
			"Saluki",
			"Illinois-Zephyr",
			"Carl-Sandburg",
			"Lake-Shore-Limited",
			"Lincoln-Service",
			"Pere-Marquette",
			"Southwest-Chief",
			"Texas-Eagle",
			"Wolverine"
		],
		"lat": "41.8786",
		"lon": "-87.6403"
	},
	{
		"id": "CIC",
		"name": "Chico",
		"code": "CIC",
		"city": "Chico",
		"stateShort": "CA",
		"stateLong": "California",
		"routes": ["Coast-Starlight"],
		"lat": "39.7067",
		"lon": "-121.8356"
	},
	{
		"id": "CIN",
		"name": "Cincinnati",
		"code": "CIN",
		"city": "Cincinnati",
		"stateShort": "OH",
		"stateLong": "Ohio",
		"routes": ["Cardinal"],
		"lat": "39.11",
		"lon": "-84.5378"
	},
	{
		"id": "CLA",
		"name": "Claremont",
		"code": "CLA",
		"city": "Claremont",
		"stateShort": "NH",
		"stateLong": "New Hampshire",
		"routes": ["Vermonter"],
		"lat": "43.3692",
		"lon": "-72.3778"
	},
	{
		"id": "CBR",
		"name": "Cleburne",
		"code": "CBR",
		"city": "Cleburne",
		"stateShort": "TX",
		"stateLong": "Texas",
		"routes": ["Texas-Eagle"],
		"lat": "32.3497",
		"lon": "-97.3822"
	},
	{
		"id": "CSN",
		"name": "Clemson",
		"code": "CSN",
		"city": "Clemson",
		"stateShort": "SC",
		"stateLong": "South Carolina",
		"routes": ["Crescent"],
		"lat": "34.6911",
		"lon": "-82.8325"
	},
	{
		"id": "CLE",
		"name": "Cleveland",
		"code": "CLE",
		"city": "Cleveland",
		"stateShort": "OH",
		"stateLong": "Ohio",
		"routes": ["Capitol-Limited", "Lake-Shore-Limited"],
		"lat": "41.5056",
		"lon": "-81.6964"
	},
	{
		"id": "CLF",
		"name": "Clifton Forge",
		"code": "CLF",
		"city": "Clifton Forge",
		"stateShort": "VA",
		"stateLong": "Virginia",
		"routes": ["Cardinal"],
		"lat": "37.8147",
		"lon": "-79.8275"
	},
	{
		"id": "COT",
		"name": "Coatesville",
		"code": "COT",
		"city": "Coatesville",
		"stateShort": "PA",
		"stateLong": "Pennsylvania",
		"routes": ["Keystone-Service"],
		"lat": "39.9858",
		"lon": "-75.8208"
	},
	{
		"id": "COX",
		"name": "Colfax",
		"code": "COX",
		"city": "Colfax",
		"stateShort": "CA",
		"stateLong": "California",
		"routes": ["California-Zephyr"],
		"lat": "39.0994",
		"lon": "-120.9531"
	},
	{
		"id": "CLB",
		"name": "Columbia",
		"code": "CLB",
		"city": "Columbia",
		"stateShort": "SC",
		"stateLong": "South Carolina",
		"routes": ["Silver-Star"],
		"lat": "33.9942",
		"lon": "-81.0403"
	},
	{
		"id": "CBS",
		"name": "Columbus",
		"code": "CBS",
		"city": "Columbus",
		"stateShort": "WI",
		"stateLong": "Wisconsin",
		"routes": ["Empire-Builder"],
		"lat": "43.3408",
		"lon": "-89.0125"
	},
	{
		"id": "COV",
		"name": "Connellsville",
		"code": "COV",
		"city": "Connellsville",
		"stateShort": "PA",
		"stateLong": "Pennsylvania",
		"routes": ["Capitol-Limited"],
		"lat": "40.02",
		"lon": "-79.5928"
	},
	{
		"id": "COI",
		"name": "Connersville",
		"code": "COI",
		"city": "Connersville",
		"stateShort": "IN",
		"stateLong": "Indiana",
		"routes": ["Cardinal"],
		"lat": "39.6461",
		"lon": "-85.1333"
	},
	{
		"id": "COC",
		"name": "Corcoran",
		"code": "COC",
		"city": "Corcoran",
		"stateShort": "CA",
		"stateLong": "California",
		"routes": ["San-Joaquins"],
		"lat": "36.0983",
		"lon": "-119.5572"
	},
	{
		"id": "CWH",
		"name": "Cornwells Heights",
		"code": "CWH",
		"city": "Cornwells Heights",
		"stateShort": "PA",
		"stateLong": "Pennsylvania",
		"routes": ["Keystone-Service"],
		"lat": "40.0728",
		"lon": "-74.9519"
	},
	{
		"id": "CRF",
		"name": "Crawfordsville",
		"code": "CRF",
		"city": "Crawfordsville",
		"stateShort": "IN",
		"stateLong": "Indiana",
		"routes": ["Cardinal"],
		"lat": "40.0447",
		"lon": "-86.8992"
	},
	{
		"id": "CRN",
		"name": "Creston",
		"code": "CRN",
		"city": "Creston",
		"stateShort": "IA",
		"stateLong": "Iowa",
		"routes": ["California-Zephyr"],
		"lat": "41.0569",
		"lon": "-94.3614"
	},
	{
		"id": "CRT",
		"name": "Croton–Harmon",
		"code": "CRT",
		"city": "Croton-on-Hudson",
		"stateShort": "NY",
		"stateLong": "New York",
		"routes": [
			"Adirondack",
			"Berkshire-Flyer",
			"Empire-Service",
			"Ethan-Allen-Express",
			"Lake-Shore-Limited",
			"Maple-Leaf"
		],
		"lat": "41.1897",
		"lon": "-73.8828"
	},
	{
		"id": "CLP",
		"name": "Culpeper",
		"code": "CLP",
		"city": "Culpeper",
		"stateShort": "VA",
		"stateLong": "Virginia",
		"routes": ["Cardinal", "Crescent", "Northeast-Regional"],
		"lat": "38.4722",
		"lon": "-77.9933"
	},
	{
		"id": "CUM",
		"name": "Cumberland",
		"code": "CUM",
		"city": "Cumberland",
		"stateShort": "MD",
		"stateLong": "Maryland",
		"routes": ["Capitol-Limited"],
		"lat": "39.6506",
		"lon": "-78.7578"
	},
	{
		"id": "CUT",
		"name": "Cut Bank",
		"code": "CUT",
		"city": "Cut Bank",
		"stateShort": "MT",
		"stateLong": "Montana",
		"routes": ["Empire-Builder"],
		"lat": "48.6383",
		"lon": "-112.3317"
	},
	{
		"id": "DAL",
		"name": "Dallas",
		"code": "DAL",
		"city": "Dallas",
		"stateShort": "TX",
		"stateLong": "Texas",
		"routes": ["Texas-Eagle"],
		"lat": "32.7761",
		"lon": "-96.8075"
	},
	{
		"id": "DAN",
		"name": "Danville",
		"code": "DAN",
		"city": "Danville",
		"stateShort": "VA",
		"stateLong": "Virginia",
		"routes": ["Crescent"],
		"lat": "36.5839",
		"lon": "-79.3839"
	},
	{
		"id": "DAV",
		"name": "Davis",
		"code": "DAV",
		"city": "Davis",
		"stateShort": "CA",
		"stateLong": "California",
		"routes": ["California-Zephyr", "Capitol-Corridor", "Coast-Starlight"],
		"lat": "38.5436",
		"lon": "-121.7367"
	},
	{
		"id": "DER",
		"name": "Dearborn",
		"code": "DER",
		"city": "Dearborn",
		"stateShort": "MI",
		"stateLong": "Michigan",
		"routes": ["Wolverine"],
		"lat": "42.3069",
		"lon": "-83.2347"
	},
	{
		"id": "DFB",
		"name": "Deerfield Beach",
		"code": "DFB",
		"city": "Deerfield Beach",
		"stateShort": "FL",
		"stateLong": "Florida",
		"routes": ["Silver-Meteor", "Silver-Star"],
		"lat": "26.3169",
		"lon": "-80.1222"
	},
	{
		"id": "DRT",
		"name": "Del Rio",
		"code": "DRT",
		"city": "Del Rio",
		"stateShort": "TX",
		"stateLong": "Texas",
		"routes": ["Sunset-Limited", "Texas-Eagle"],
		"lat": "29.3628",
		"lon": "-100.9014"
	},
	{
		"id": "DLD",
		"name": "DeLand",
		"code": "DLD",
		"city": "DeLand",
		"stateShort": "FL",
		"stateLong": "Florida",
		"routes": ["Silver-Meteor", "Silver-Star"],
		"lat": "29.0172",
		"lon": "-81.3525"
	},
	{
		"id": "DLB",
		"name": "Delray Beach",
		"code": "DLB",
		"city": "Delray Beach",
		"stateShort": "FL",
		"stateLong": "Florida",
		"routes": ["Silver-Meteor", "Silver-Star"],
		"lat": "26.4542",
		"lon": "-80.0908"
	},
	{
		"id": "DEM",
		"name": "Deming",
		"code": "DEM",
		"city": "Deming",
		"stateShort": "NM",
		"stateLong": "New Mexico",
		"routes": ["Sunset-Limited", "Texas-Eagle"],
		"lat": "32.2717",
		"lon": "-107.7542"
	},
	{
		"id": "DNK",
		"name": "Denmark",
		"code": "DNK",
		"city": "Denmark",
		"stateShort": "SC",
		"stateLong": "South Carolina",
		"routes": ["Silver-Star"],
		"lat": "33.3261",
		"lon": "-81.1436"
	},
	{
		"id": "DEN",
		"name": "Denver",
		"code": "DEN",
		"city": "Denver",
		"stateShort": "CO",
		"stateLong": "Colorado",
		"routes": ["California-Zephyr", "Winter-Park-Express"],
		"lat": "39.7531",
		"lon": "-105"
	},
	{
		"id": "DET",
		"name": "Detroit",
		"code": "DET",
		"city": "Detroit",
		"stateShort": "MI",
		"stateLong": "Michigan",
		"routes": ["Wolverine"],
		"lat": "42.3678",
		"lon": "-83.0725"
	},
	{
		"id": "DLK",
		"name": "Detroit Lakes",
		"code": "DLK",
		"city": "Detroit Lakes",
		"stateShort": "MN",
		"stateLong": "Minnesota",
		"routes": ["Empire-Builder"],
		"lat": "46.8197",
		"lon": "-95.8458"
	},
	{
		"id": "DVL",
		"name": "Devils Lake",
		"code": "DVL",
		"city": "Devils Lake",
		"stateShort": "ND",
		"stateLong": "North Dakota",
		"routes": ["Empire-Builder"],
		"lat": "48.1103",
		"lon": "-98.8614"
	},
	{
		"id": "DIL",
		"name": "Dillon",
		"code": "DIL",
		"city": "Dillon",
		"stateShort": "SC",
		"stateLong": "South Carolina",
		"routes": ["Palmetto"],
		"lat": "34.4175",
		"lon": "-79.3722"
	},
	{
		"id": "DDG",
		"name": "Dodge City",
		"code": "DDG",
		"city": "Dodge City",
		"stateShort": "KS",
		"stateLong": "Kansas",
		"routes": ["Southwest-Chief"],
		"lat": "37.7525",
		"lon": "-100.0164"
	},
	{
		"id": "DOV",
		"name": "Dover",
		"code": "DOV",
		"city": "Dover",
		"stateShort": "NH",
		"stateLong": "New Hampshire",
		"routes": ["Downeaster"],
		"lat": "43.1983",
		"lon": "-70.8772"
	},
	{
		"id": "DOA",
		"name": "Dowagiac",
		"code": "DOA",
		"city": "Dowagiac",
		"stateShort": "MI",
		"stateLong": "Michigan",
		"routes": ["Blue-Water", "Wolverine"],
		"lat": "41.9808",
		"lon": "-86.1089"
	},
	{
		"id": "DOW",
		"name": "Downingtown",
		"code": "DOW",
		"city": "Downingtown",
		"stateShort": "PA",
		"stateLong": "Pennsylvania",
		"routes": ["Keystone-Service"],
		"lat": "40.0025",
		"lon": "-75.7103"
	},
	{
		"id": "DQN",
		"name": "Du Quoin",
		"code": "DQN",
		"city": "Du Quoin",
		"stateShort": "IL",
		"stateLong": "Illinois",
		"routes": ["Illini", "Saluki"],
		"lat": "38.0122",
		"lon": "-89.2403"
	},
	{
		"id": "DUN",
		"name": "Dunsmuir",
		"code": "DUN",
		"city": "Dunsmuir",
		"stateShort": "CA",
		"stateLong": "California",
		"routes": ["Coast-Starlight"],
		"lat": "41.2111",
		"lon": "-122.2706"
	},
	{
		"id": "DRD",
		"name": "Durand",
		"code": "DRD",
		"city": "Durand",
		"stateShort": "MI",
		"stateLong": "Michigan",
		"routes": ["Blue-Water"],
		"lat": "42.9092",
		"lon": "-83.9825"
	},
	{
		"id": "DNC",
		"name": "Durham",
		"code": "DNC",
		"city": "Durham",
		"stateShort": "NC",
		"stateLong": "North Carolina",
		"routes": ["Carolinian", "Piedmont"],
		"lat": "35.9981",
		"lon": "-78.9061"
	},
	{
		"id": "DHM",
		"name": "Durham–UNH",
		"code": "DHM",
		"city": "Durham",
		"stateShort": "NH",
		"stateLong": "New Hampshire",
		"routes": ["Downeaster"],
		"lat": "43.1394",
		"lon": "-70.9411"
	},
	{
		"id": "DWT",
		"name": "Dwight",
		"code": "DWT",
		"city": "Dwight",
		"stateShort": "IL",
		"stateLong": "Illinois",
		"routes": ["Lincoln-Service"],
		"lat": "41.0903",
		"lon": "-88.4297"
	},
	{
		"id": "DYE",
		"name": "Dyer",
		"code": "DYE",
		"city": "Dyer",
		"stateShort": "IN",
		"stateLong": "Indiana",
		"routes": ["Cardinal"],
		"lat": "41.5153",
		"lon": "-87.5181"
	},
	{
		"id": "GPK",
		"name": "East Glacier Park",
		"code": "GPK",
		"city": "East Glacier Park",
		"stateShort": "MT",
		"stateLong": "Montana",
		"routes": ["Empire-Builder"],
		"lat": "48.4439",
		"lon": "-113.2186"
	},
	{
		"id": "LNS",
		"name": "East Lansing",
		"code": "LNS",
		"city": "East Lansing",
		"stateShort": "MI",
		"stateLong": "Michigan",
		"routes": ["Blue-Water"],
		"lat": "42.7192",
		"lon": "-84.495"
	},
	{
		"id": "EDM",
		"name": "Edmonds",
		"code": "EDM",
		"city": "Edmonds",
		"stateShort": "WA",
		"stateLong": "Washington",
		"routes": ["Amtrak-Cascades", "Empire-Builder"],
		"lat": "47.8111",
		"lon": "-122.3842"
	},
	{
		"id": "EFG",
		"name": "Effingham",
		"code": "EFG",
		"city": "Effingham",
		"stateShort": "IL",
		"stateLong": "Illinois",
		"routes": ["City-of-New-Orleans", "Illini", "Saluki"],
		"lat": "39.1169",
		"lon": "-88.5472"
	},
	{
		"id": "ELP",
		"name": "El Paso",
		"code": "ELP",
		"city": "El Paso",
		"stateShort": "TX",
		"stateLong": "Texas",
		"routes": ["Sunset-Limited", "Texas-Eagle"],
		"lat": "31.7572",
		"lon": "-106.4958"
	},
	{
		"id": "ELT",
		"name": "Elizabethtown",
		"code": "ELT",
		"city": "Elizabethtown",
		"stateShort": "PA",
		"stateLong": "Pennsylvania",
		"routes": ["Keystone-Service", "Pennsylvanian"],
		"lat": "40.1469",
		"lon": "-76.6122"
	},
	{
		"id": "EKH",
		"name": "Elkhart",
		"code": "EKH",
		"city": "Elkhart",
		"stateShort": "IN",
		"stateLong": "Indiana",
		"routes": ["Capitol-Limited", "Lake-Shore-Limited"],
		"lat": "41.6806",
		"lon": "-85.9717"
	},
	{
		"id": "ELK",
		"name": "Elko",
		"code": "ELK",
		"city": "Elko",
		"stateShort": "NV",
		"stateLong": "Nevada",
		"routes": ["California-Zephyr"],
		"lat": "40.8364",
		"lon": "-115.7503"
	},
	{
		"id": "ELY",
		"name": "Elyria",
		"code": "ELY",
		"city": "Elyria",
		"stateShort": "OH",
		"stateLong": "Ohio",
		"routes": ["Capitol-Limited", "Lake-Shore-Limited"],
		"lat": "41.37",
		"lon": "-82.0967"
	},
	{
		"id": "EMY",
		"name": "Emeryville",
		"code": "EMY",
		"city": "Emeryville",
		"stateShort": "CA",
		"stateLong": "California",
		"routes": [
			"California-Zephyr",
			"Capitol-Corridor",
			"Coast-Starlight",
			"San-Joaquins"
		],
		"lat": "37.8406",
		"lon": "-122.2925"
	},
	{
		"id": "EPH",
		"name": "Ephrata",
		"code": "EPH",
		"city": "Ephrata",
		"stateShort": "WA",
		"stateLong": "Washington",
		"routes": ["Empire-Builder"],
		"lat": "47.3208",
		"lon": "-119.5494"
	},
	{
		"id": "ERI",
		"name": "Erie",
		"code": "ERI",
		"city": "Erie",
		"stateShort": "PA",
		"stateLong": "Pennsylvania",
		"routes": ["Lake-Shore-Limited"],
		"lat": "42.1208",
		"lon": "-80.0819"
	},
	{
		"id": "ESM",
		"name": "Essex",
		"code": "ESM",
		"city": "Essex",
		"stateShort": "MT",
		"stateLong": "Montana",
		"routes": ["Empire-Builder"],
		"lat": "48.2753",
		"lon": "-113.6103"
	},
	{
		"id": "ESX",
		"name": "Essex Junction",
		"code": "ESX",
		"city": "Essex Junction",
		"stateShort": "VT",
		"stateLong": "Vermont",
		"routes": ["Vermonter"],
		"lat": "44.4925",
		"lon": "-73.1103"
	},
	{
		"id": "EUG",
		"name": "Eugene–Springfield",
		"code": "EUG",
		"city": "Eugene",
		"stateShort": "OR",
		"stateLong": "Oregon",
		"routes": ["Amtrak-Cascades", "Coast-Starlight"],
		"lat": "44.0553",
		"lon": "-123.0922"
	},
	{
		"id": "EVR",
		"name": "Everett",
		"code": "EVR",
		"city": "Everett",
		"stateShort": "WA",
		"stateLong": "Washington",
		"routes": ["Amtrak-Cascades", "Empire-Builder"],
		"lat": "47.9753",
		"lon": "-122.1975"
	},
	{
		"id": "EXR",
		"name": "Exeter",
		"code": "EXR",
		"city": "Exeter",
		"stateShort": "NH",
		"stateLong": "New Hampshire",
		"routes": ["Downeaster"],
		"lat": "42.9811",
		"lon": "-70.9586"
	},
	{
		"id": "EXT",
		"name": "Exton",
		"code": "EXT",
		"city": "Exton",
		"stateShort": "PA",
		"stateLong": "Pennsylvania",
		"routes": ["Keystone-Service", "Pennsylvanian"],
		"lat": "40.0194",
		"lon": "-75.6217"
	},
	{
		"id": "FFV",
		"name": "Fairfield–Vacaville",
		"code": "FFV",
		"city": "Fairfield",
		"stateShort": "CA",
		"stateLong": "California",
		"routes": ["Capitol-Corridor"],
		"lat": "38.2856",
		"lon": "-121.9681"
	},
	{
		"id": "FAR",
		"name": "Fargo",
		"code": "FAR",
		"city": "Fargo",
		"stateShort": "ND",
		"stateLong": "North Dakota",
		"routes": ["Empire-Builder"],
		"lat": "46.8811",
		"lon": "-96.7861"
	},
	{
		"id": "FAY",
		"name": "Fayetteville",
		"code": "FAY",
		"city": "Fayetteville",
		"stateShort": "NC",
		"stateLong": "North Carolina",
		"routes": ["Palmetto", "Silver-Meteor"],
		"lat": "35.055",
		"lon": "-78.8847"
	},
	{
		"id": "VRN",
		"name": "Ferrisburgh–Vergennes",
		"code": "VRN",
		"city": "Ferrisburgh",
		"stateShort": "VT",
		"stateLong": "Vermont",
		"routes": ["Ethan-Allen-Express"],
		"lat": "44.1808",
		"lon": "-73.2489"
	},
	{
		"id": "FLG",
		"name": "Flagstaff",
		"code": "FLG",
		"city": "Flagstaff",
		"stateShort": "AZ",
		"stateLong": "Arizona",
		"routes": ["Southwest-Chief"],
		"lat": "35.1972",
		"lon": "-111.6494"
	},
	{
		"id": "FLN",
		"name": "Flint",
		"code": "FLN",
		"city": "Flint",
		"stateShort": "MI",
		"stateLong": "Michigan",
		"routes": ["Blue-Water"],
		"lat": "43.0156",
		"lon": "-83.6514"
	},
	{
		"id": "FLO",
		"name": "Florence",
		"code": "FLO",
		"city": "Florence",
		"stateShort": "SC",
		"stateLong": "South Carolina",
		"routes": ["Palmetto", "Silver-Meteor"],
		"lat": "34.1992",
		"lon": "-79.7575"
	},
	{
		"id": "FED",
		"name": "Fort Edward",
		"code": "FED",
		"city": "Fort Edward",
		"stateShort": "NY",
		"stateLong": "New York",
		"routes": ["Adirondack", "Ethan-Allen-Express"],
		"lat": "43.2697",
		"lon": "-73.5804"
	},
	{
		"id": "FTL",
		"name": "Fort Lauderdale",
		"code": "FTL",
		"city": "Fort Lauderdale",
		"stateShort": "FL",
		"stateLong": "Florida",
		"routes": ["Silver-Meteor", "Silver-Star"],
		"lat": "26.1195",
		"lon": "-80.1699"
	},
	{
		"id": "FMD",
		"name": "Fort Madison",
		"code": "FMD",
		"city": "Fort Madison",
		"stateShort": "IA",
		"stateLong": "Iowa",
		"routes": ["Southwest-Chief"],
		"lat": "40.6295",
		"lon": "-91.3136"
	},
	{
		"id": "FMG",
		"name": "Fort Morgan",
		"code": "FMG",
		"city": "Fort Morgan",
		"stateShort": "CO",
		"stateLong": "Colorado",
		"routes": ["California-Zephyr"],
		"lat": "40.2469",
		"lon": "-103.8028"
	},
	{
		"id": "FTW",
		"name": "Fort Worth",
		"code": "FTW",
		"city": "Fort Worth",
		"stateShort": "TX",
		"stateLong": "Texas",
		"routes": ["Heartland-Flyer", "Texas-Eagle"],
		"lat": "32.7528",
		"lon": "-97.3264"
	},
	{
		"id": "FRA",
		"name": "Framingham",
		"code": "FRA",
		"city": "Framingham",
		"stateShort": "MA",
		"stateLong": "Massachusetts",
		"routes": ["Lake-Shore-Limited"],
		"lat": "42.2764",
		"lon": "-71.4183"
	},
	{
		"id": "WIP",
		"name": "Fraser–Winter Park",
		"code": "WIP",
		"city": "Fraser",
		"stateShort": "CO",
		"stateLong": "Colorado",
		"routes": ["California-Zephyr"],
		"lat": "39.9475",
		"lon": "-105.8175"
	},
	{
		"id": "FBG",
		"name": "Fredericksburg",
		"code": "FBG",
		"city": "Fredericksburg",
		"stateShort": "VA",
		"stateLong": "Virginia",
		"routes": ["Carolinian", "Northeast-Regional", "Silver-Meteor"],
		"lat": "38.2983",
		"lon": "-77.4569"
	},
	{
		"id": "FRE",
		"name": "Freeport",
		"code": "FRE",
		"city": "Freeport",
		"stateShort": "ME",
		"stateLong": "Maine",
		"routes": ["Downeaster"],
		"lat": "43.855",
		"lon": "-70.1031"
	},
	{
		"id": "FMT",
		"name": "Fremont",
		"code": "FMT",
		"city": "Fremont",
		"stateShort": "CA",
		"stateLong": "California",
		"routes": ["Capitol-Corridor"],
		"lat": "37.5592",
		"lon": "-122.0072"
	},
	{
		"id": "FNO",
		"name": "Fresno",
		"code": "FNO",
		"city": "Fresno",
		"stateShort": "CA",
		"stateLong": "California",
		"routes": ["San-Joaquins"],
		"lat": "36.7383",
		"lon": "-119.7819"
	},
	{
		"id": "FUL",
		"name": "Fullerton",
		"code": "FUL",
		"city": "Fullerton",
		"stateShort": "CA",
		"stateLong": "California",
		"routes": ["Pacific-Surfliner", "Southwest-Chief"],
		"lat": "33.8686",
		"lon": "-117.9222"
	},
	{
		"id": "FTN",
		"name": "Fulton",
		"code": "FTN",
		"city": "Fulton",
		"stateShort": "KY",
		"stateLong": "Kentucky",
		"routes": ["City-of-New-Orleans"],
		"lat": "36.5236",
		"lon": "-88.8872"
	},
	{
		"id": "GLE",
		"name": "Gainesville",
		"code": "GLE",
		"city": "Gainesville",
		"stateShort": "TX",
		"stateLong": "Texas",
		"routes": ["Heartland-Flyer"],
		"lat": "33.625",
		"lon": "-97.1408"
	},
	{
		"id": "GNS",
		"name": "Gainesville",
		"code": "GNS",
		"city": "Gainesville",
		"stateShort": "GA",
		"stateLong": "Georgia",
		"routes": ["Crescent"],
		"lat": "34.2889",
		"lon": "-83.8197"
	},
	{
		"id": "GBB",
		"name": "Galesburg",
		"code": "GBB",
		"city": "Galesburg",
		"stateShort": "IL",
		"stateLong": "Illinois",
		"routes": [
			"California-Zephyr",
			"Illinois-Zephyr",
			"Carl-Sandburg",
			"Southwest-Chief"
		],
		"lat": "40.9447",
		"lon": "-90.3639"
	},
	{
		"id": "GLP",
		"name": "Gallup",
		"code": "GLP",
		"city": "Gallup",
		"stateShort": "NM",
		"stateLong": "New Mexico",
		"routes": ["Southwest-Chief"],
		"lat": "35.5292",
		"lon": "-108.7406"
	},
	{
		"id": "GCK",
		"name": "Garden City",
		"code": "GCK",
		"city": "Garden City",
		"stateShort": "KS",
		"stateLong": "Kansas",
		"routes": ["Southwest-Chief"],
		"lat": "37.9642",
		"lon": "-100.8733"
	},
	{
		"id": "GAS",
		"name": "Gastonia",
		"code": "GAS",
		"city": "Gastonia",
		"stateShort": "NC",
		"stateLong": "North Carolina",
		"routes": ["Crescent"],
		"lat": "35.2692",
		"lon": "-81.1625"
	},
	{
		"id": "GLM",
		"name": "Gilman",
		"code": "GLM",
		"city": "Gilman",
		"stateShort": "IL",
		"stateLong": "Illinois",
		"routes": ["Illini", "Saluki"],
		"lat": "40.7617",
		"lon": "-87.9956"
	},
	{
		"id": "GGW",
		"name": "Glasgow",
		"code": "GGW",
		"city": "Glasgow",
		"stateShort": "MT",
		"stateLong": "Montana",
		"routes": ["Empire-Builder"],
		"lat": "48.195",
		"lon": "-106.6364"
	},
	{
		"id": "GDL",
		"name": "Glendale",
		"code": "GDL",
		"city": "Glendale",
		"stateShort": "CA",
		"stateLong": "California",
		"routes": ["Pacific-Surfliner"],
		"lat": "34.1236",
		"lon": "-118.2578"
	},
	{
		"id": "GLN",
		"name": "Glenview",
		"code": "GLN",
		"city": "Glenview",
		"stateShort": "IL",
		"stateLong": "Illinois",
		"routes": ["Empire-Builder", "Hiawatha-Service"],
		"lat": "42.075",
		"lon": "-87.8058"
	},
	{
		"id": "GSC",
		"name": "Glenwood Springs",
		"code": "GSC",
		"city": "Glenwood Springs",
		"stateShort": "CO",
		"stateLong": "Colorado",
		"routes": ["California-Zephyr"],
		"lat": "39.5481",
		"lon": "-107.3231"
	},
	{
		"id": "GTA",
		"name": "Goleta",
		"code": "GTA",
		"city": "Goleta",
		"stateShort": "CA",
		"stateLong": "California",
		"routes": ["Pacific-Surfliner"],
		"lat": "34.4378",
		"lon": "-119.8431"
	},
	{
		"id": "GRA",
		"name": "Granby",
		"code": "GRA",
		"city": "Granby",
		"stateShort": "CO",
		"stateLong": "Colorado",
		"routes": ["California-Zephyr"],
		"lat": "40.0842",
		"lon": "-105.9356"
	},
	{
		"id": "GFK",
		"name": "Grand Forks",
		"code": "GFK",
		"city": "Grand Forks",
		"stateShort": "ND",
		"stateLong": "North Dakota",
		"routes": ["Empire-Builder"],
		"lat": "47.9175",
		"lon": "-97.1108"
	},
	{
		"id": "GJT",
		"name": "Grand Junction",
		"code": "GJT",
		"city": "Grand Junction",
		"stateShort": "CO",
		"stateLong": "Colorado",
		"routes": ["California-Zephyr"],
		"lat": "39.0647",
		"lon": "-108.5706"
	},
	{
		"id": "GRR",
		"name": "Grand Rapids",
		"code": "GRR",
		"city": "Grand Rapids",
		"stateShort": "MI",
		"stateLong": "Michigan",
		"routes": ["Pere-Marquette"],
		"lat": "42.9556",
		"lon": "-85.6722"
	},
	{
		"id": "GRI",
		"name": "Green River",
		"code": "GRI",
		"city": "Green River",
		"stateShort": "UT",
		"stateLong": "Utah",
		"routes": ["California-Zephyr"],
		"lat": "38.9922",
		"lon": "-110.1653"
	},
	{
		"id": "GFD",
		"name": "Greenfield",
		"code": "GFD",
		"city": "Greenfield",
		"stateShort": "MA",
		"stateLong": "Massachusetts",
		"routes": ["Valley-Flyer", "Vermonter"],
		"lat": "42.5858",
		"lon": "-72.6006"
	},
	{
		"id": "GRO",
		"name": "Greensboro",
		"code": "GRO",
		"city": "Greensboro",
		"stateShort": "NC",
		"stateLong": "North Carolina",
		"routes": ["Carolinian", "Crescent", "Piedmont"],
		"lat": "36.0694",
		"lon": "-79.7872"
	},
	{
		"id": "GNB",
		"name": "Greensburg",
		"code": "GNB",
		"city": "Greensburg",
		"stateShort": "PA",
		"stateLong": "Pennsylvania",
		"routes": ["Pennsylvanian"],
		"lat": "40.3044",
		"lon": "-79.5467"
	},
	{
		"id": "GRV",
		"name": "Greenville",
		"code": "GRV",
		"city": "Greenville",
		"stateShort": "SC",
		"stateLong": "South Carolina",
		"routes": ["Crescent"],
		"lat": "34.8586",
		"lon": "-82.4136"
	},
	{
		"id": "GWD",
		"name": "Greenwood",
		"code": "GWD",
		"city": "Greenwood",
		"stateShort": "MS",
		"stateLong": "Mississippi",
		"routes": ["City-of-New-Orleans"],
		"lat": "33.5169",
		"lon": "-90.1764"
	},
	{
		"id": "GMS",
		"name": "Grimsby",
		"code": "GMS",
		"city": "Grimsby",
		"stateShort": "ON",
		"stateLong": "Ontario",
		"routes": ["Maple-Leaf"],
		"lat": "43.1958",
		"lon": "-79.5578"
	},
	{
		"id": "GVB",
		"name": "Grover Beach",
		"code": "GVB",
		"city": "Grover Beach",
		"stateShort": "CA",
		"stateLong": "California",
		"routes": ["Pacific-Surfliner"],
		"lat": "35.1214",
		"lon": "-120.6292"
	},
	{
		"id": "GUA",
		"name": "Guadalupe",
		"code": "GUA",
		"city": "Guadalupe",
		"stateShort": "CA",
		"stateLong": "California",
		"routes": ["Pacific-Surfliner"],
		"lat": "34.9628",
		"lon": "-120.5733"
	},
	{
		"id": "HAM",
		"name": "Hamlet",
		"code": "HAM",
		"city": "Hamlet",
		"stateShort": "NC",
		"stateLong": "North Carolina",
		"routes": ["Silver-Star"],
		"lat": "34.8838",
		"lon": "-79.6991"
	},
	{
		"id": "HMD",
		"name": "Hammond",
		"code": "HMD",
		"city": "Hammond",
		"stateShort": "LA",
		"stateLong": "Louisiana",
		"routes": ["City-of-New-Orleans"],
		"lat": "30.5072",
		"lon": "-90.4619"
	},
	{
		"id": "HMI",
		"name": "Hammond–Whiting",
		"code": "HMI",
		"city": "Hammond",
		"stateShort": "IN",
		"stateLong": "Indiana",
		"routes": ["Wolverine"],
		"lat": "41.6911",
		"lon": "-87.5067"
	},
	{
		"id": "HNF",
		"name": "Hanford",
		"code": "HNF",
		"city": "Hanford",
		"stateShort": "CA",
		"stateLong": "California",
		"routes": ["San-Joaquins"],
		"lat": "36.3261",
		"lon": "-119.6519"
	},
	{
		"id": "HFY",
		"name": "Harpers Ferry",
		"code": "HFY",
		"city": "Harpers Ferry",
		"stateShort": "WV",
		"stateLong": "West Virginia",
		"routes": ["Capitol-Limited"],
		"lat": "39.3244",
		"lon": "-77.7311"
	},
	{
		"id": "HAR",
		"name": "Harrisburg",
		"code": "HAR",
		"city": "Harrisburg",
		"stateShort": "PA",
		"stateLong": "Pennsylvania",
		"routes": ["Keystone-Service", "Pennsylvanian"],
		"lat": "40.2619",
		"lon": "-76.8778"
	},
	{
		"id": "HFD",
		"name": "Hartford",
		"code": "HFD",
		"city": "Hartford",
		"stateShort": "CT",
		"stateLong": "Connecticut",
		"routes": [
			"Hartford-Line",
			"Northeast-Regional",
			"Valley-Flyer",
			"Vermonter"
		],
		"lat": "41.7689",
		"lon": "-72.6817"
	},
	{
		"id": "HAS",
		"name": "Hastings",
		"code": "HAS",
		"city": "Hastings",
		"stateShort": "NE",
		"stateLong": "Nebraska",
		"routes": ["California-Zephyr"],
		"lat": "40.5841",
		"lon": "-98.3875"
	},
	{
		"id": "HBG",
		"name": "Hattiesburg",
		"code": "HBG",
		"city": "Hattiesburg",
		"stateShort": "MS",
		"stateLong": "Mississippi",
		"routes": ["Crescent"],
		"lat": "31.3272",
		"lon": "-89.2864"
	},
	{
		"id": "HHL",
		"name": "Haverhill",
		"code": "HHL",
		"city": "Haverhill",
		"stateShort": "MA",
		"stateLong": "Massachusetts",
		"routes": ["Downeaster"],
		"lat": "42.7736",
		"lon": "-71.0864"
	},
	{
		"id": "HAV",
		"name": "Havre",
		"code": "HAV",
		"city": "Havre",
		"stateShort": "MT",
		"stateLong": "Montana",
		"routes": ["Empire-Builder"],
		"lat": "48.5544",
		"lon": "-109.6783"
	},
	{
		"id": "HAY",
		"name": "Hayward",
		"code": "HAY",
		"city": "Hayward",
		"stateShort": "CA",
		"stateLong": "California",
		"routes": ["Capitol-Corridor"],
		"lat": "37.6661",
		"lon": "-122.0992"
	},
	{
		"id": "HAZ",
		"name": "Hazlehurst",
		"code": "HAZ",
		"city": "Hazlehurst",
		"stateShort": "MS",
		"stateLong": "Mississippi",
		"routes": ["City-of-New-Orleans"],
		"lat": "31.8614",
		"lon": "-90.3944"
	},
	{
		"id": "HER",
		"name": "Helper",
		"code": "HER",
		"city": "Helper",
		"stateShort": "UT",
		"stateLong": "Utah",
		"routes": ["California-Zephyr"],
		"lat": "39.6839",
		"lon": "-110.8539"
	},
	{
		"id": "HEM",
		"name": "Hermann",
		"code": "HEM",
		"city": "Hermann",
		"stateShort": "MO",
		"stateLong": "Missouri",
		"routes": ["Missouri-River-Runner"],
		"lat": "38.7072",
		"lon": "-91.4328"
	},
	{
		"id": "HPT",
		"name": "High Point",
		"code": "HPT",
		"city": "High Point",
		"stateShort": "NC",
		"stateLong": "North Carolina",
		"routes": ["Carolinian", "Crescent", "Piedmont"],
		"lat": "35.9572",
		"lon": "-80.0064"
	},
	{
		"id": "HIN",
		"name": "Hinton",
		"code": "HIN",
		"city": "Hinton",
		"stateShort": "WV",
		"stateLong": "West Virginia",
		"routes": ["Cardinal"],
		"lat": "37.6747",
		"lon": "-80.8922"
	},
	{
		"id": "HLD",
		"name": "Holdrege",
		"code": "HLD",
		"city": "Holdrege",
		"stateShort": "NE",
		"stateLong": "Nebraska",
		"routes": ["California-Zephyr"],
		"lat": "40.4358",
		"lon": "-99.3706"
	},
	{
		"id": "HOM",
		"name": "Holland",
		"code": "HOM",
		"city": "Holland",
		"stateShort": "MI",
		"stateLong": "Michigan",
		"routes": ["Pere-Marquette"],
		"lat": "42.7894",
		"lon": "-86.098"
	},
	{
		"id": "HOL",
		"name": "Hollywood",
		"code": "HOL",
		"city": "Hollywood",
		"stateShort": "FL",
		"stateLong": "Florida",
		"routes": ["Silver-Meteor", "Silver-Star"],
		"lat": "26.0118",
		"lon": "-80.1678"
	},
	{
		"id": "HLK",
		"name": "Holyoke",
		"code": "HLK",
		"city": "Holyoke",
		"stateShort": "MA",
		"stateLong": "Massachusetts",
		"routes": ["Valley-Flyer", "Vermonter"],
		"lat": "42.2042",
		"lon": "-72.6028"
	},
	{
		"id": "HMW",
		"name": "Homewood",
		"code": "HMW",
		"city": "Homewood",
		"stateShort": "IL",
		"stateLong": "Illinois",
		"routes": ["City-of-New-Orleans", "Illini", "Saluki"],
		"lat": "41.5625",
		"lon": "-87.6686"
	},
	{
		"id": "HOP",
		"name": "Hope",
		"code": "HOP",
		"city": "Hope",
		"stateShort": "AR",
		"stateLong": "Arkansas",
		"routes": ["Texas-Eagle"],
		"lat": "33.6689",
		"lon": "-93.5922"
	},
	{
		"id": "HOS",
		"name": "Houston",
		"code": "HOS",
		"city": "Houston",
		"stateShort": "TX",
		"stateLong": "Texas",
		"routes": ["Sunset-Limited"],
		"lat": "29.7672",
		"lon": "-95.3675"
	},
	{
		"id": "HUD",
		"name": "Hudson",
		"code": "HUD",
		"city": "Hudson",
		"stateShort": "NY",
		"stateLong": "New York",
		"routes": [
			"Adirondack",
			"Berkshire-Flyer",
			"Empire-Service",
			"Ethan-Allen-Express",
			"Maple-Leaf"
		],
		"lat": "42.2542",
		"lon": "-73.7978"
	},
	{
		"id": "HGD",
		"name": "Huntingdon",
		"code": "HGD",
		"city": "Huntingdon",
		"stateShort": "PA",
		"stateLong": "Pennsylvania",
		"routes": ["Pennsylvanian"],
		"lat": "40.4839",
		"lon": "-78.0111"
	},
	{
		"id": "HUN",
		"name": "Huntington",
		"code": "HUN",
		"city": "Huntington",
		"stateShort": "WV",
		"stateLong": "West Virginia",
		"routes": ["Cardinal"],
		"lat": "38.4158",
		"lon": "-82.4397"
	},
	{
		"id": "HUT",
		"name": "Hutchinson",
		"code": "HUT",
		"city": "Hutchinson",
		"stateShort": "KS",
		"stateLong": "Kansas",
		"routes": ["Southwest-Chief"],
		"lat": "38.0558",
		"lon": "-97.9311"
	},
	{
		"id": "IDP",
		"name": "Independence",
		"code": "IDP",
		"city": "Independence",
		"stateShort": "MO",
		"stateLong": "Missouri",
		"routes": ["Missouri-River-Runner"],
		"lat": "39.0867",
		"lon": "-94.4296"
	},
	{
		"id": "IND",
		"name": "Indianapolis",
		"code": "IND",
		"city": "Indianapolis",
		"stateShort": "IN",
		"stateLong": "Indiana",
		"routes": ["Cardinal"],
		"lat": "39.7631",
		"lon": "-86.1594"
	},
	{
		"id": "IRV",
		"name": "Irvine",
		"code": "IRV",
		"city": "Irvine",
		"stateShort": "CA",
		"stateLong": "California",
		"routes": ["Pacific-Surfliner"],
		"lat": "33.6567",
		"lon": "-117.7336"
	},
	{
		"id": "JXN",
		"name": "Jackson",
		"code": "JXN",
		"city": "Jackson",
		"stateShort": "MI",
		"stateLong": "Michigan",
		"routes": ["Wolverine"],
		"lat": "42.2481",
		"lon": "-84.4003"
	},
	{
		"id": "JAN",
		"name": "Jackson",
		"code": "JAN",
		"city": "Jackson",
		"stateShort": "MS",
		"stateLong": "Mississippi",
		"routes": ["City-of-New-Orleans"],
		"lat": "32.3011",
		"lon": "-90.1911"
	},
	{
		"id": "JAX",
		"name": "Jacksonville",
		"code": "JAX",
		"city": "Jacksonville",
		"stateShort": "FL",
		"stateLong": "Florida",
		"routes": ["Silver-Meteor", "Silver-Star"],
		"lat": "30.3661",
		"lon": "-81.7233"
	},
	{
		"id": "JEF",
		"name": "Jefferson City",
		"code": "JEF",
		"city": "Jefferson City",
		"stateShort": "MO",
		"stateLong": "Missouri",
		"routes": ["Missouri-River-Runner"],
		"lat": "38.5786",
		"lon": "-92.17"
	},
	{
		"id": "JSP",
		"name": "Jesup",
		"code": "JSP",
		"city": "Jesup",
		"stateShort": "GA",
		"stateLong": "Georgia",
		"routes": ["Silver-Meteor"],
		"lat": "31.6058",
		"lon": "-81.8822"
	},
	{
		"id": "JST",
		"name": "Johnstown",
		"code": "JST",
		"city": "Johnstown",
		"stateShort": "PA",
		"stateLong": "Pennsylvania",
		"routes": ["Pennsylvanian"],
		"lat": "40.3297",
		"lon": "-78.9222"
	},
	{
		"id": "JOL",
		"name": "Joliet",
		"code": "JOL",
		"city": "Joliet",
		"stateShort": "IL",
		"stateLong": "Illinois",
		"routes": ["Lincoln-Service", "Texas-Eagle"],
		"lat": "41.5244",
		"lon": "-88.0789"
	},
	{
		"id": "KAL",
		"name": "Kalamazoo",
		"code": "KAL",
		"city": "Kalamazoo",
		"stateShort": "MI",
		"stateLong": "Michigan",
		"routes": ["Blue-Water", "Wolverine"],
		"lat": "42.2956",
		"lon": "-85.5842"
	},
	{
		"id": "KKI",
		"name": "Kankakee",
		"code": "KKI",
		"city": "Kankakee",
		"stateShort": "IL",
		"stateLong": "Illinois",
		"routes": ["City-of-New-Orleans", "Illini", "Saluki"],
		"lat": "41.1193",
		"lon": "-87.8656"
	},
	{
		"id": "KAN",
		"name": "Kannapolis",
		"code": "KAN",
		"city": "Kannapolis",
		"stateShort": "NC",
		"stateLong": "North Carolina",
		"routes": ["Carolinian", "Piedmont"],
		"lat": "35.4961",
		"lon": "-80.6247"
	},
	{
		"id": "KCY",
		"name": "Kansas City",
		"code": "KCY",
		"city": "Kansas City",
		"stateShort": "MO",
		"stateLong": "Missouri",
		"routes": ["Missouri-River-Runner", "Southwest-Chief"],
		"lat": "39.0847",
		"lon": "-94.5853"
	},
	{
		"id": "KEL",
		"name": "Kelso",
		"code": "KEL",
		"city": "Kelso",
		"stateShort": "WA",
		"stateLong": "Washington",
		"routes": ["Amtrak-Cascades", "Coast-Starlight"],
		"lat": "46.1422",
		"lon": "-122.9131"
	},
	{
		"id": "KEE",
		"name": "Kewanee",
		"code": "KEE",
		"city": "Kewanee",
		"stateShort": "IL",
		"stateLong": "Illinois",
		"routes": ["Illinois-Zephyr", "Carl-Sandburg"],
		"lat": "41.2458",
		"lon": "-89.9278"
	},
	{
		"id": "KNG",
		"name": "Kingman",
		"code": "KNG",
		"city": "Kingman",
		"stateShort": "AZ",
		"stateLong": "Arizona",
		"routes": ["Southwest-Chief"],
		"lat": "35.1883",
		"lon": "-114.0525"
	},
	{
		"id": "KIN",
		"name": "Kingston",
		"code": "KIN",
		"city": "Kingston",
		"stateShort": "RI",
		"stateLong": "Rhode Island",
		"routes": ["Northeast-Regional"],
		"lat": "41.4839",
		"lon": "-71.5608"
	},
	{
		"id": "KTR",
		"name": "Kingstree",
		"code": "KTR",
		"city": "Kingstree",
		"stateShort": "SC",
		"stateLong": "South Carolina",
		"routes": ["Palmetto", "Silver-Meteor"],
		"lat": "33.6636",
		"lon": "-79.8292"
	},
	{
		"id": "KWD",
		"name": "Kirkwood",
		"code": "KWD",
		"city": "Kirkwood",
		"stateShort": "MO",
		"stateLong": "Missouri",
		"routes": ["Missouri-River-Runner"],
		"lat": "38.5808",
		"lon": "-90.4067"
	},
	{
		"id": "KIS",
		"name": "Kissimmee",
		"code": "KIS",
		"city": "Kissimmee",
		"stateShort": "FL",
		"stateLong": "Florida",
		"routes": ["Silver-Meteor", "Silver-Star"],
		"lat": "28.2939",
		"lon": "-81.4042"
	},
	{
		"id": "KFS",
		"name": "Klamath Falls",
		"code": "KFS",
		"city": "Klamath Falls",
		"stateShort": "OR",
		"stateLong": "Oregon",
		"routes": ["Coast-Starlight"],
		"lat": "42.2256",
		"lon": "-121.7717"
	},
	{
		"id": "LSE",
		"name": "La Crosse",
		"code": "LSE",
		"city": "La Crosse",
		"stateShort": "WI",
		"stateLong": "Wisconsin",
		"routes": ["Empire-Builder"],
		"lat": "43.8333",
		"lon": "-91.2472"
	},
	{
		"id": "LAG",
		"name": "La Grange Road",
		"code": "LAG",
		"city": "La Grange",
		"stateShort": "IL",
		"stateLong": "Illinois",
		"routes": ["Illinois-Zephyr", "Carl-Sandburg"],
		"lat": "41.8158",
		"lon": "-87.8711"
	},
	{
		"id": "LAJ",
		"name": "La Junta",
		"code": "LAJ",
		"city": "La Junta",
		"stateShort": "CO",
		"stateLong": "Colorado",
		"routes": ["Southwest-Chief"],
		"lat": "37.9883",
		"lon": "-103.5442"
	},
	{
		"id": "LAP",
		"name": "La Plata",
		"code": "LAP",
		"city": "La Plata",
		"stateShort": "MO",
		"stateLong": "Missouri",
		"routes": ["Southwest-Chief"],
		"lat": "40.0292",
		"lon": "-92.4939"
	},
	{
		"id": "LAF",
		"name": "Lafayette",
		"code": "LAF",
		"city": "Lafayette",
		"stateShort": "IN",
		"stateLong": "Indiana",
		"routes": ["Cardinal"],
		"lat": "40.4186",
		"lon": "-86.8956"
	},
	{
		"id": "LFT",
		"name": "Lafayette",
		"code": "LFT",
		"city": "Lafayette",
		"stateShort": "LA",
		"stateLong": "Louisiana",
		"routes": ["Sunset-Limited"],
		"lat": "30.2267",
		"lon": "-92.0144"
	},
	{
		"id": "LCH",
		"name": "Lake Charles",
		"code": "LCH",
		"city": "Lake Charles",
		"stateShort": "LA",
		"stateLong": "Louisiana",
		"routes": ["Sunset-Limited"],
		"lat": "30.2382",
		"lon": "-93.2171"
	},
	{
		"id": "LAK",
		"name": "Lakeland",
		"code": "LAK",
		"city": "Lakeland",
		"stateShort": "FL",
		"stateLong": "Florida",
		"routes": ["Silver-Star"],
		"lat": "28.0456",
		"lon": "-81.9519"
	},
	{
		"id": "LKL",
		"name": "Lakeland",
		"code": "LKL",
		"city": "Lakeland",
		"stateShort": "FL",
		"stateLong": "Florida",
		"routes": ["Silver-Star"],
		"lat": "28.0456",
		"lon": "-81.9519"
	},
	{
		"id": "LMR",
		"name": "Lamar",
		"code": "LMR",
		"city": "Lamar",
		"stateShort": "CO",
		"stateLong": "Colorado",
		"routes": ["Southwest-Chief"],
		"lat": "38.0897",
		"lon": "-102.6186"
	},
	{
		"id": "LMY",
		"name": "Lamy",
		"code": "LMY",
		"city": "Lamy",
		"stateShort": "NM",
		"stateLong": "New Mexico",
		"routes": ["Southwest-Chief"],
		"lat": "35.4808",
		"lon": "-105.88"
	},
	{
		"id": "LNC",
		"name": "Lancaster",
		"code": "LNC",
		"city": "Lancaster",
		"stateShort": "PA",
		"stateLong": "Pennsylvania",
		"routes": ["Keystone-Service", "Pennsylvanian"],
		"lat": "40.0544",
		"lon": "-76.3077"
	},
	{
		"id": "LPE",
		"name": "Lapeer",
		"code": "LPE",
		"city": "Lapeer",
		"stateShort": "MI",
		"stateLong": "Michigan",
		"routes": ["Blue-Water"],
		"lat": "43.0494",
		"lon": "-83.3061"
	},
	{
		"id": "LSV",
		"name": "Las Vegas",
		"code": "LSV",
		"city": "Las Vegas",
		"stateShort": "NM",
		"stateLong": "New Mexico",
		"routes": ["Southwest-Chief"],
		"lat": "35.5936",
		"lon": "-105.2125"
	},
	{
		"id": "LAB",
		"name": "Latrobe",
		"code": "LAB",
		"city": "Latrobe",
		"stateShort": "PA",
		"stateLong": "Pennsylvania",
		"routes": ["Pennsylvanian"],
		"lat": "40.3183",
		"lon": "-79.3853"
	},
	{
		"id": "LAU",
		"name": "Laurel",
		"code": "LAU",
		"city": "Laurel",
		"stateShort": "MS",
		"stateLong": "Mississippi",
		"routes": ["Crescent"],
		"lat": "31.6922",
		"lon": "-89.1281"
	},
	{
		"id": "LRC",
		"name": "Lawrence",
		"code": "LRC",
		"city": "Lawrence",
		"stateShort": "KS",
		"stateLong": "Kansas",
		"routes": ["Southwest-Chief"],
		"lat": "38.9711",
		"lon": "-95.2306"
	},
	{
		"id": "LWA",
		"name": "Leavenworth",
		"code": "LWA",
		"city": "Leavenworth",
		"stateShort": "WA",
		"stateLong": "Washington",
		"routes": ["Empire-Builder"],
		"lat": "47.6064",
		"lon": "-120.6439"
	},
	{
		"id": "LEE",
		"name": "Lee's Summit",
		"code": "LEE",
		"city": "Lee's Summit",
		"stateShort": "MO",
		"stateLong": "Missouri",
		"routes": ["Missouri-River-Runner"],
		"lat": "38.9125",
		"lon": "-94.3783"
	},
	{
		"id": "LEW",
		"name": "Lewistown",
		"code": "LEW",
		"city": "Lewistown",
		"stateShort": "PA",
		"stateLong": "Pennsylvania",
		"routes": ["Pennsylvanian"],
		"lat": "40.5883",
		"lon": "-77.5803"
	},
	{
		"id": "LEX",
		"name": "Lexington",
		"code": "LEX",
		"city": "Lexington",
		"stateShort": "NC",
		"stateLong": "North Carolina",
		"routes": ["Carolinian", "Piedmont"],
		"lat": "35.8203",
		"lon": "-80.2525"
	},
	{
		"id": "LIB",
		"name": "Libby",
		"code": "LIB",
		"city": "Libby",
		"stateShort": "MT",
		"stateLong": "Montana",
		"routes": ["Empire-Builder"],
		"lat": "48.395",
		"lon": "-115.5489"
	},
	{
		"id": "LCN",
		"name": "Lincoln",
		"code": "LCN",
		"city": "Lincoln",
		"stateShort": "IL",
		"stateLong": "Illinois",
		"routes": ["Lincoln-Service", "Texas-Eagle"],
		"lat": "40.1475",
		"lon": "-89.3636"
	},
	{
		"id": "LNK",
		"name": "Lincoln",
		"code": "LNK",
		"city": "Lincoln",
		"stateShort": "NE",
		"stateLong": "Nebraska",
		"routes": ["California-Zephyr"],
		"lat": "40.8158",
		"lon": "-96.7139"
	},
	{
		"id": "LRK",
		"name": "Little Rock",
		"code": "LRK",
		"city": "Little Rock",
		"stateShort": "AR",
		"stateLong": "Arkansas",
		"routes": ["Texas-Eagle"],
		"lat": "34.7506",
		"lon": "-92.2869"
	},
	{
		"id": "LOD",
		"name": "Lodi",
		"code": "LOD",
		"city": "Lodi",
		"stateShort": "CA",
		"stateLong": "California",
		"routes": ["San-Joaquins"],
		"lat": "38.1333",
		"lon": "-121.2719"
	},
	{
		"id": "LPS",
		"name": "Lompoc–Surf",
		"code": "LPS",
		"city": "Surf",
		"stateShort": "CA",
		"stateLong": "California",
		"routes": ["Pacific-Surfliner"],
		"lat": "34.6831",
		"lon": "-120.605"
	},
	{
		"id": "LVW",
		"name": "Longview",
		"code": "LVW",
		"city": "Longview",
		"stateShort": "TX",
		"stateLong": "Texas",
		"routes": ["Texas-Eagle"],
		"lat": "32.4942",
		"lon": "-94.7278"
	},
	{
		"id": "LDB",
		"name": "Lordsburg",
		"code": "LDB",
		"city": "Lordsburg",
		"stateShort": "NM",
		"stateLong": "New Mexico",
		"routes": ["Sunset-Limited", "Texas-Eagle"],
		"lat": "32.35",
		"lon": "-108.7069"
	},
	{
		"id": "LOR",
		"name": "Lorton",
		"code": "LOR",
		"city": "Lorton",
		"stateShort": "VA",
		"stateLong": "Virginia",
		"routes": ["Auto-Train"],
		"lat": "38.7083",
		"lon": "-77.2208"
	},
	{
		"id": "LAX",
		"name": "Los Angeles Union",
		"code": "LAX",
		"city": "Los Angeles",
		"stateShort": "CA",
		"stateLong": "California",
		"routes": [
			"Coast-Starlight",
			"Pacific-Surfliner",
			"Southwest-Chief",
			"Sunset-Limited",
			"Texas-Eagle"
		],
		"lat": "34.0553",
		"lon": "-118.2353"
	},
	{
		"id": "LYH",
		"name": "Lynchburg–Kemper Street",
		"code": "LYH",
		"city": "Lynchburg",
		"stateShort": "VA",
		"stateLong": "Virginia",
		"routes": ["Crescent", "Northeast-Regional"],
		"lat": "37.4064",
		"lon": "-79.1572"
	},
	{
		"id": "MAC",
		"name": "Macomb",
		"code": "MAC",
		"city": "Macomb",
		"stateShort": "IL",
		"stateLong": "Illinois",
		"routes": ["Illinois-Zephyr", "Carl-Sandburg"],
		"lat": "40.4611",
		"lon": "-90.6725"
	},
	{
		"id": "MDR",
		"name": "Madera",
		"code": "MDR",
		"city": "Madera",
		"stateShort": "CA",
		"stateLong": "California",
		"routes": ["San-Joaquins"],
		"lat": "37.0225",
		"lon": "-120.075"
	},
	{
		"id": "MAL",
		"name": "Malta",
		"code": "MAL",
		"city": "Malta",
		"stateShort": "MT",
		"stateLong": "Montana",
		"routes": ["Empire-Builder"],
		"lat": "48.3606",
		"lon": "-107.8719"
	},
	{
		"id": "MVN",
		"name": "Malvern",
		"code": "MVN",
		"city": "Malvern",
		"stateShort": "AR",
		"stateLong": "Arkansas",
		"routes": ["Texas-Eagle"],
		"lat": "34.3656",
		"lon": "-92.8136"
	},
	{
		"id": "MSS",
		"name": "Manassas",
		"code": "MSS",
		"city": "Manassas",
		"stateShort": "VA",
		"stateLong": "Virginia",
		"routes": ["Cardinal", "Crescent", "Northeast-Regional"],
		"lat": "38.75",
		"lon": "-77.4728"
	},
	{
		"id": "MRC",
		"name": "Maricopa",
		"code": "MRC",
		"city": "Maricopa",
		"stateShort": "AZ",
		"stateLong": "Arizona",
		"routes": ["Sunset-Limited", "Texas-Eagle"],
		"lat": "33.0564",
		"lon": "-112.0475"
	},
	{
		"id": "MKS",
		"name": "Marks",
		"code": "MKS",
		"city": "Marks",
		"stateShort": "MS",
		"stateLong": "Mississippi",
		"routes": ["City-of-New-Orleans"],
		"lat": "34.2583",
		"lon": "-90.2722"
	},
	{
		"id": "MHL",
		"name": "Marshall",
		"code": "MHL",
		"city": "Marshall",
		"stateShort": "TX",
		"stateLong": "Texas",
		"routes": ["Texas-Eagle"],
		"lat": "32.5519",
		"lon": "-94.3675"
	},
	{
		"id": "MTZ",
		"name": "Martinez",
		"code": "MTZ",
		"city": "Martinez",
		"stateShort": "CA",
		"stateLong": "California",
		"routes": [
			"California-Zephyr",
			"Capitol-Corridor",
			"Coast-Starlight",
			"San-Joaquins"
		],
		"lat": "38.0192",
		"lon": "-122.1389"
	},
	{
		"id": "MRB",
		"name": "Martinsburg",
		"code": "MRB",
		"city": "Martinsburg",
		"stateShort": "WV",
		"stateLong": "West Virginia",
		"routes": ["Capitol-Limited"],
		"lat": "39.4586",
		"lon": "-77.9607"
	},
	{
		"id": "MAT",
		"name": "Mattoon",
		"code": "MAT",
		"city": "Mattoon",
		"stateShort": "IL",
		"stateLong": "Illinois",
		"routes": ["City-of-New-Orleans", "Illini", "Saluki"],
		"lat": "39.4828",
		"lon": "-88.3761"
	},
	{
		"id": "MAY",
		"name": "Maysville",
		"code": "MAY",
		"city": "Maysville",
		"stateShort": "KY",
		"stateLong": "Kentucky",
		"routes": ["Cardinal"],
		"lat": "38.6522",
		"lon": "-83.7711"
	},
	{
		"id": "MCB",
		"name": "McComb",
		"code": "MCB",
		"city": "McComb",
		"stateShort": "MS",
		"stateLong": "Mississippi",
		"routes": ["City-of-New-Orleans"],
		"lat": "31.2444",
		"lon": "-90.4511"
	},
	{
		"id": "MCK",
		"name": "McCook",
		"code": "MCK",
		"city": "McCook",
		"stateShort": "NE",
		"stateLong": "Nebraska",
		"routes": ["California-Zephyr"],
		"lat": "40.1975",
		"lon": "-100.6256"
	},
	{
		"id": "MCG",
		"name": "McGregor",
		"code": "MCG",
		"city": "McGregor",
		"stateShort": "TX",
		"stateLong": "Texas",
		"routes": ["Texas-Eagle"],
		"lat": "31.4433",
		"lon": "-97.4047"
	},
	{
		"id": "MEM",
		"name": "Memphis Central",
		"code": "MEM",
		"city": "Memphis",
		"stateShort": "TN",
		"stateLong": "Tennessee",
		"routes": ["City-of-New-Orleans"],
		"lat": "35.1322",
		"lon": "-90.0594"
	},
	{
		"id": "MDT",
		"name": "Mendota",
		"code": "MDT",
		"city": "Mendota",
		"stateShort": "IL",
		"stateLong": "Illinois",
		"routes": ["Illinois-Zephyr", "Carl-Sandburg", "Southwest-Chief"],
		"lat": "41.5497",
		"lon": "-89.1172"
	},
	{
		"id": "MCD",
		"name": "Merced",
		"code": "MCD",
		"city": "Merced",
		"stateShort": "CA",
		"stateLong": "California",
		"routes": ["San-Joaquins"],
		"lat": "37.3072",
		"lon": "-120.4767"
	},
	{
		"id": "MDN",
		"name": "Meriden",
		"code": "MDN",
		"city": "Meriden",
		"stateShort": "CT",
		"stateLong": "Connecticut",
		"routes": [
			"Hartford-Line",
			"Northeast-Regional",
			"Valley-Flyer",
			"Vermonter"
		],
		"lat": "41.5394",
		"lon": "-72.8008"
	},
	{
		"id": "MEI",
		"name": "Meridian",
		"code": "MEI",
		"city": "Meridian",
		"stateShort": "MS",
		"stateLong": "Mississippi",
		"routes": ["Crescent"],
		"lat": "32.3639",
		"lon": "-88.6964"
	},
	{
		"id": "MET",
		"name": "Metropark",
		"code": "MET",
		"city": "Iselin",
		"stateShort": "NJ",
		"stateLong": "New Jersey",
		"routes": [
			"Acela",
			"Crescent",
			"Keystone-Service",
			"Northeast-Regional",
			"Palmetto",
			"Vermonter"
		],
		"lat": "40.5681",
		"lon": "-74.3297"
	},
	{
		"id": "MIA",
		"name": "Miami",
		"code": "MIA",
		"city": "Miami",
		"stateShort": "FL",
		"stateLong": "Florida",
		"routes": ["Silver-Meteor", "Silver-Star"],
		"lat": "25.8497",
		"lon": "-80.2581"
	},
	{
		"id": "MBY",
		"name": "Middlebury",
		"code": "MBY",
		"city": "Middlebury",
		"stateShort": "VT",
		"stateLong": "Vermont",
		"routes": ["Ethan-Allen-Express"],
		"lat": "44.0178",
		"lon": "-73.1697"
	},
	{
		"id": "MID",
		"name": "Middletown",
		"code": "MID",
		"city": "Middletown",
		"stateShort": "PA",
		"stateLong": "Pennsylvania",
		"routes": ["Keystone-Service"],
		"lat": "40.1961",
		"lon": "-76.7389"
	},
	{
		"id": "MKE",
		"name": "Milwaukee",
		"code": "MKE",
		"city": "Milwaukee",
		"stateShort": "WI",
		"stateLong": "Wisconsin",
		"routes": ["Empire-Builder", "Hiawatha-Service"],
		"lat": "43.0342",
		"lon": "-87.9172"
	},
	{
		"id": "MKA",
		"name": "Milwaukee Airport",
		"code": "MKA",
		"city": "Milwaukee",
		"stateShort": "WI",
		"stateLong": "Wisconsin",
		"routes": ["Hiawatha-Service"],
		"lat": "42.9406",
		"lon": "-87.9247"
	},
	{
		"id": "MIN",
		"name": "Mineola",
		"code": "MIN",
		"city": "Mineola",
		"stateShort": "TX",
		"stateLong": "Texas",
		"routes": ["Texas-Eagle"],
		"lat": "32.6619",
		"lon": "-95.4892"
	},
	{
		"id": "MOT",
		"name": "Minot",
		"code": "MOT",
		"city": "Minot",
		"stateShort": "ND",
		"stateLong": "North Dakota",
		"routes": ["Empire-Builder"],
		"lat": "48.2361",
		"lon": "-101.2986"
	},
	{
		"id": "MOD",
		"name": "Modesto",
		"code": "MOD",
		"city": "Modesto",
		"stateShort": "CA",
		"stateLong": "California",
		"routes": ["San-Joaquins"],
		"lat": "37.6692",
		"lon": "-120.915"
	},
	{
		"id": "MNG",
		"name": "Montgomery",
		"code": "MNG",
		"city": "Montgomery",
		"stateShort": "WV",
		"stateLong": "West Virginia",
		"routes": ["Cardinal"],
		"lat": "38.1808",
		"lon": "-81.3239"
	},
	{
		"id": "MPR",
		"name": "Montpelier",
		"code": "MPR",
		"city": "Montpelier",
		"stateShort": "VT",
		"stateLong": "Vermont",
		"routes": ["Vermonter"],
		"lat": "44.2556",
		"lon": "-72.6064"
	},
	{
		"id": "MTR",
		"name": "Montreal",
		"code": "MTR",
		"city": "Montreal",
		"stateShort": "QC",
		"stateLong": "Quebec",
		"routes": ["Adirondack"],
		"lat": "45.4997",
		"lon": "-73.5667"
	},
	{
		"id": "MPK",
		"name": "Moorpark",
		"code": "MPK",
		"city": "Moorpark",
		"stateShort": "CA",
		"stateLong": "California",
		"routes": ["Pacific-Surfliner"],
		"lat": "34.2853",
		"lon": "-118.8769"
	},
	{
		"id": "MJY",
		"name": "Mount Joy",
		"code": "MJY",
		"city": "Mount Joy",
		"stateShort": "PA",
		"stateLong": "Pennsylvania",
		"routes": ["Keystone-Service"],
		"lat": "40.1088",
		"lon": "-76.5028"
	},
	{
		"id": "MTP",
		"name": "Mount Pleasant",
		"code": "MTP",
		"city": "Mount Pleasant",
		"stateShort": "IA",
		"stateLong": "Iowa",
		"routes": ["California-Zephyr"],
		"lat": "40.9714",
		"lon": "-91.5506"
	},
	{
		"id": "MVW",
		"name": "Mount Vernon",
		"code": "MVW",
		"city": "Mount Vernon",
		"stateShort": "WA",
		"stateLong": "Washington",
		"routes": ["Amtrak-Cascades"],
		"lat": "48.4183",
		"lon": "-122.3347"
	},
	{
		"id": "MYS",
		"name": "Mystic",
		"code": "MYS",
		"city": "Mystic",
		"stateShort": "CT",
		"stateLong": "Connecticut",
		"routes": ["Northeast-Regional"],
		"lat": "41.3508",
		"lon": "-71.9633"
	},
	{
		"id": "NPV",
		"name": "Naperville",
		"code": "NPV",
		"city": "Naperville",
		"stateShort": "IL",
		"stateLong": "Illinois",
		"routes": [
			"California-Zephyr",
			"Illinois-Zephyr",
			"Carl-Sandburg",
			"Southwest-Chief"
		],
		"lat": "41.7797",
		"lon": "-88.1456"
	},
	{
		"id": "NDL",
		"name": "Needles",
		"code": "NDL",
		"city": "Needles",
		"stateShort": "CA",
		"stateLong": "California",
		"routes": ["Southwest-Chief"],
		"lat": "34.8408",
		"lon": "-114.6056"
	},
	{
		"id": "NBK",
		"name": "New Brunswick",
		"code": "NBK",
		"city": "New Brunswick",
		"stateShort": "NJ",
		"stateLong": "New Jersey",
		"routes": ["Keystone-Service", "Northeast-Regional"],
		"lat": "40.4964",
		"lon": "-74.4464"
	},
	{
		"id": "NBU",
		"name": "New Buffalo",
		"code": "NBU",
		"city": "New Buffalo",
		"stateShort": "MI",
		"stateLong": "Michigan",
		"routes": ["Blue-Water", "Wolverine"],
		"lat": "41.7964",
		"lon": "-86.7461"
	},
	{
		"id": "NCR",
		"name": "New Carrollton",
		"code": "NCR",
		"city": "New Carrollton",
		"stateShort": "MD",
		"stateLong": "Maryland",
		"routes": ["Northeast-Regional", "Palmetto", "Vermonter"],
		"lat": "38.9481",
		"lon": "-76.8719"
	},
	{
		"id": "NHV",
		"name": "New Haven Union",
		"code": "NHV",
		"city": "New Haven",
		"stateShort": "CT",
		"stateLong": "Connecticut",
		"routes": [
			"Acela",
			"Hartford-Line",
			"Northeast-Regional",
			"Valley-Flyer",
			"Vermonter"
		],
		"lat": "41.2975",
		"lon": "-72.9267"
	},
	{
		"id": "STS",
		"name": "New Haven State Street",
		"code": "STS",
		"city": "New Haven",
		"stateShort": "CT",
		"stateLong": "Connecticut",
		"routes": ["Hartford-Line", "Northeast-Regional", "Valley-Flyer"],
		"lat": "41.3058",
		"lon": "-72.9217"
	},
	{
		"id": "NIB",
		"name": "New Iberia",
		"code": "NIB",
		"city": "New Iberia",
		"stateShort": "LA",
		"stateLong": "Louisiana",
		"routes": ["Sunset-Limited"],
		"lat": "30.0086",
		"lon": "-91.8239"
	},
	{
		"id": "NLC",
		"name": "New London",
		"code": "NLC",
		"city": "New London",
		"stateShort": "CT",
		"stateLong": "Connecticut",
		"routes": ["Northeast-Regional"],
		"lat": "41.3542",
		"lon": "-72.0931"
	},
	{
		"id": "NOL",
		"name": "New Orleans",
		"code": "NOL",
		"city": "New Orleans",
		"stateShort": "LA",
		"stateLong": "Louisiana",
		"routes": ["City-of-New-Orleans", "Crescent", "Sunset-Limited"],
		"lat": "29.9461",
		"lon": "-90.0786"
	},
	{
		"id": "NRO",
		"name": "New Rochelle",
		"code": "NRO",
		"city": "New Rochelle",
		"stateShort": "NY",
		"stateLong": "New York",
		"routes": ["Northeast-Regional"],
		"lat": "40.9123",
		"lon": "-73.7849"
	},
	{
		"id": "NYP",
		"name": "New York Penn",
		"code": "NYP",
		"city": "New York",
		"stateShort": "NY",
		"stateLong": "New York",
		"routes": [
			"Acela",
			"Adirondack",
			"Berkshire-Flyer",
			"Cardinal",
			"Carolinian",
			"Crescent",
			"Empire-Service",
			"Ethan-Allen-Express",
			"Keystone-Service",
			"Lake-Shore-Limited",
			"Maple-Leaf",
			"Northeast-Regional",
			"Pennsylvanian",
			"Palmetto",
			"Silver-Meteor",
			"Silver-Star",
			"Vermonter"
		],
		"lat": "40.7506",
		"lon": "-73.9939"
	},
	{
		"id": "NYF",
		"name": "New York State Fair",
		"code": "NYF",
		"city": "Syracuse",
		"stateShort": "NY",
		"stateLong": "New York",
		"routes": ["Empire-Service", "Maple-Leaf"],
		"lat": "43.0717",
		"lon": "-76.2295"
	},
	{
		"id": "NRK",
		"name": "Newark",
		"code": "NRK",
		"city": "Newark",
		"stateShort": "DE",
		"stateLong": "Delaware",
		"routes": ["Northeast-Regional"],
		"lat": "39.6703",
		"lon": "-75.7531"
	},
	{
		"id": "EWR",
		"name": "Newark Liberty International Airport",
		"code": "EWR",
		"city": "Newark",
		"stateShort": "NJ",
		"stateLong": "New Jersey",
		"routes": ["Keystone-Service", "Northeast-Regional"],
		"lat": "40.7044",
		"lon": "-74.1906"
	},
	{
		"id": "NWK",
		"name": "Newark Penn",
		"code": "NWK",
		"city": "Newark",
		"stateShort": "NJ",
		"stateLong": "New Jersey",
		"routes": [
			"Acela",
			"Cardinal",
			"Carolinian",
			"Crescent",
			"Keystone-Service",
			"Northeast-Regional",
			"Pennsylvanian",
			"Palmetto",
			"Silver-Meteor",
			"Silver-Star",
			"Vermonter"
		],
		"lat": "40.7347",
		"lon": "-74.1642"
	},
	{
		"id": "NBN",
		"name": "Newbern–Dyersburg",
		"code": "NBN",
		"city": "Newbern",
		"stateShort": "TN",
		"stateLong": "Tennessee",
		"routes": ["City-of-New-Orleans"],
		"lat": "36.1125",
		"lon": "-89.2625"
	},
	{
		"id": "NPN",
		"name": "Newport News",
		"code": "NPN",
		"city": "Newport News",
		"stateShort": "VA",
		"stateLong": "Virginia",
		"routes": ["Northeast-Regional"],
		"lat": "37.0228",
		"lon": "-76.4519"
	},
	{
		"id": "NEW",
		"name": "Newton",
		"code": "NEW",
		"city": "Newton",
		"stateShort": "KS",
		"stateLong": "Kansas",
		"routes": ["Southwest-Chief"],
		"lat": "38.0472",
		"lon": "-97.3444"
	},
	{
		"id": "NFL",
		"name": "Niagara Falls",
		"code": "NFL",
		"city": "Niagara Falls",
		"stateShort": "NY",
		"stateLong": "New York",
		"routes": ["Empire-Service", "Maple-Leaf"],
		"lat": "43.1097",
		"lon": "-79.0553"
	},
	{
		"id": "NFS",
		"name": "Niagara Falls",
		"code": "NFS",
		"city": "Niagara Falls",
		"stateShort": "ON",
		"stateLong": "Ontario",
		"routes": ["Maple-Leaf"],
		"lat": "43.1089",
		"lon": "-79.0633"
	},
	{
		"id": "NLS",
		"name": "Niles",
		"code": "NLS",
		"city": "Niles",
		"stateShort": "MI",
		"stateLong": "Michigan",
		"routes": ["Blue-Water", "Wolverine"],
		"lat": "41.8372",
		"lon": "-86.2522"
	},
	{
		"id": "NFK",
		"name": "Norfolk",
		"code": "NFK",
		"city": "Norfolk",
		"stateShort": "VA",
		"stateLong": "Virginia",
		"routes": ["Northeast-Regional"],
		"lat": "36.8433",
		"lon": "-76.2758"
	},
	{
		"id": "NOR",
		"name": "Norman",
		"code": "NOR",
		"city": "Norman",
		"stateShort": "OK",
		"stateLong": "Oklahoma",
		"routes": ["Heartland-Flyer"],
		"lat": "35.2199",
		"lon": "-97.4431"
	},
	{
		"id": "NSF",
		"name": "North Carolina State Fair",
		"code": "NSF",
		"city": "Raleigh",
		"stateShort": "NC",
		"stateLong": "North Carolina",
		"routes": ["Carolinian", "Piedmont"],
		"lat": "35.7942",
		"lon": "-78.7061"
	},
	{
		"id": "NHT",
		"name": "Northampton",
		"code": "NHT",
		"city": "Northampton",
		"stateShort": "MA",
		"stateLong": "Massachusetts",
		"routes": ["Valley-Flyer", "Vermonter"],
		"lat": "42.319",
		"lon": "-72.6268"
	},
	{
		"id": "NRG",
		"name": "Northridge",
		"code": "NRG",
		"city": "Northridge",
		"stateShort": "CA",
		"stateLong": "California",
		"routes": ["Pacific-Surfliner"],
		"lat": "34.2294",
		"lon": "-118.5447"
	},
	{
		"id": "OAC",
		"name": "Oakland Coliseum",
		"code": "OAC",
		"city": "Oakland",
		"stateShort": "CA",
		"stateLong": "California",
		"routes": ["Capitol-Corridor"],
		"lat": "37.7525",
		"lon": "-122.1981"
	},
	{
		"id": "OKJ",
		"name": "Oakland–Jack London Square",
		"code": "OKJ",
		"city": "Oakland",
		"stateShort": "CA",
		"stateLong": "California",
		"routes": ["Capitol-Corridor", "Coast-Starlight", "San-Joaquins"],
		"lat": "37.7936",
		"lon": "-122.2714"
	},
	{
		"id": "OKL",
		"name": "Oakville",
		"code": "OKL",
		"city": "Oakville",
		"stateShort": "ON",
		"stateLong": "Ontario",
		"routes": ["Maple-Leaf"],
		"lat": "43.455",
		"lon": "-79.6825"
	},
	{
		"id": "OSD",
		"name": "Oceanside",
		"code": "OSD",
		"city": "Oceanside",
		"stateShort": "CA",
		"stateLong": "California",
		"routes": ["Pacific-Surfliner"],
		"lat": "33.1919",
		"lon": "-117.3794"
	},
	{
		"id": "OKE",
		"name": "Okeechobee",
		"code": "OKE",
		"city": "Okeechobee",
		"stateShort": "FL",
		"stateLong": "Florida",
		"routes": ["Silver-Star"],
		"lat": "27.2517",
		"lon": "-80.83"
	},
	{
		"id": "OKC",
		"name": "Oklahoma City",
		"code": "OKC",
		"city": "Oklahoma City",
		"stateShort": "OK",
		"stateLong": "Oklahoma",
		"routes": ["Heartland-Flyer"],
		"lat": "35.4653",
		"lon": "-97.5128"
	},
	{
		"id": "ORB",
		"name": "Old Orchard Beach",
		"code": "ORB",
		"city": "Old Orchard Beach",
		"stateShort": "ME",
		"stateLong": "Maine",
		"routes": ["Downeaster"],
		"lat": "43.5144",
		"lon": "-70.3761"
	},
	{
		"id": "OSB",
		"name": "Old Saybrook",
		"code": "OSB",
		"city": "Old Saybrook",
		"stateShort": "CT",
		"stateLong": "Connecticut",
		"routes": ["Northeast-Regional"],
		"lat": "41.3003",
		"lon": "-72.3769"
	},
	{
		"id": "OLW",
		"name": "Olympia–Lacey",
		"code": "OLW",
		"city": "Lacey",
		"stateShort": "WA",
		"stateLong": "Washington",
		"routes": ["Amtrak-Cascades", "Coast-Starlight"],
		"lat": "46.9914",
		"lon": "-122.7942"
	},
	{
		"id": "OMA",
		"name": "Omaha",
		"code": "OMA",
		"city": "Omaha",
		"stateShort": "NE",
		"stateLong": "Nebraska",
		"routes": ["California-Zephyr"],
		"lat": "41.2497",
		"lon": "-95.9272"
	},
	{
		"id": "ONA",
		"name": "Ontario",
		"code": "ONA",
		"city": "Ontario",
		"stateShort": "CA",
		"stateLong": "California",
		"routes": ["Sunset-Limited", "Texas-Eagle"],
		"lat": "34.0617",
		"lon": "-117.6497"
	},
	{
		"id": "ORC",
		"name": "Oregon City",
		"code": "ORC",
		"city": "Oregon City",
		"stateShort": "OR",
		"stateLong": "Oregon",
		"routes": ["Amtrak-Cascades"],
		"lat": "45.3661",
		"lon": "-122.5961"
	},
	{
		"id": "ORL",
		"name": "Orlando",
		"code": "ORL",
		"city": "Orlando",
		"stateShort": "FL",
		"stateLong": "Florida",
		"routes": ["Silver-Meteor", "Silver-Star"],
		"lat": "28.5258",
		"lon": "-81.3814"
	},
	{
		"id": "OSC",
		"name": "Osceola",
		"code": "OSC",
		"city": "Osceola",
		"stateShort": "IA",
		"stateLong": "Iowa",
		"routes": ["California-Zephyr"],
		"lat": "41.0372",
		"lon": "-93.765"
	},
	{
		"id": "OTM",
		"name": "Ottumwa",
		"code": "OTM",
		"city": "Ottumwa",
		"stateShort": "IA",
		"stateLong": "Iowa",
		"routes": ["California-Zephyr"],
		"lat": "41.0186",
		"lon": "-92.415"
	},
	{
		"id": "OXN",
		"name": "Oxnard",
		"code": "OXN",
		"city": "Oxnard",
		"stateShort": "CA",
		"stateLong": "California",
		"routes": ["Coast-Starlight", "Pacific-Surfliner"],
		"lat": "34.1994",
		"lon": "-119.1761"
	},
	{
		"id": "PAK",
		"name": "Palatka",
		"code": "PAK",
		"city": "Palatka",
		"stateShort": "FL",
		"stateLong": "Florida",
		"routes": ["Silver-Meteor", "Silver-Star"],
		"lat": "29.65",
		"lon": "-81.6406"
	},
	{
		"id": "PSN",
		"name": "Palm Springs",
		"code": "PSN",
		"city": "Palm Springs",
		"stateShort": "CA",
		"stateLong": "California",
		"routes": ["Sunset-Limited", "Texas-Eagle"],
		"lat": "33.8978",
		"lon": "-116.5481"
	},
	{
		"id": "PAO",
		"name": "Paoli",
		"code": "PAO",
		"city": "Paoli",
		"stateShort": "PA",
		"stateLong": "Pennsylvania",
		"routes": ["Keystone-Service", "Pennsylvanian"],
		"lat": "40.0431",
		"lon": "-75.4836"
	},
	{
		"id": "PAR",
		"name": "Parkesburg",
		"code": "PAR",
		"city": "Parkesburg",
		"stateShort": "PA",
		"stateLong": "Pennsylvania",
		"routes": ["Keystone-Service"],
		"lat": "39.9592",
		"lon": "-75.9222"
	},
	{
		"id": "PSC",
		"name": "Pasco",
		"code": "PSC",
		"city": "Pasco",
		"stateShort": "WA",
		"stateLong": "Washington",
		"routes": ["Empire-Builder"],
		"lat": "46.2369",
		"lon": "-119.0875"
	},
	{
		"id": "PRB",
		"name": "Paso Robles",
		"code": "PRB",
		"city": "Paso Robles",
		"stateShort": "CA",
		"stateLong": "California",
		"routes": ["Coast-Starlight"],
		"lat": "35.6228",
		"lon": "-120.6878"
	},
	{
		"id": "PTB",
		"name": "Petersburg",
		"code": "PTB",
		"city": "Petersburg",
		"stateShort": "VA",
		"stateLong": "Virginia",
		"routes": [
			"Carolinian",
			"Northeast-Regional",
			"Palmetto",
			"Silver-Meteor",
			"Silver-Star"
		],
		"lat": "37.2419",
		"lon": "-77.4286"
	},
	{
		"id": "PVL",
		"name": "Pauls Valley",
		"code": "PVL",
		"city": "Pauls Valley",
		"stateShort": "OK",
		"stateLong": "Oklahoma",
		"routes": ["Heartland-Flyer"],
		"lat": "34.7417",
		"lon": "-97.2183"
	},
	{
		"id": "PHL",
		"name": "Philadelphia 30th Street",
		"code": "PHL",
		"city": "Philadelphia",
		"stateShort": "PA",
		"stateLong": "Pennsylvania",
		"routes": [
			"Acela",
			"Cardinal",
			"Carolinian",
			"Crescent",
			"Keystone-Service",
			"Northeast-Regional",
			"Palmetto",
			"Pennsylvanian",
			"Silver-Meteor",
			"Silver-Star",
			"Vermonter"
		],
		"lat": "39.9558",
		"lon": "-75.1819"
	},
	{
		"id": "PHN",
		"name": "Philadelphia North",
		"code": "PHN",
		"city": "Philadelphia",
		"stateShort": "PA",
		"stateLong": "Pennsylvania",
		"routes": ["Keystone-Service"],
		"lat": "39.9975",
		"lon": "-75.1544"
	},
	{
		"id": "PIC",
		"name": "Picayune",
		"code": "PIC",
		"city": "Picayune",
		"stateShort": "MS",
		"stateLong": "Mississippi",
		"routes": ["Crescent"],
		"lat": "30.5244",
		"lon": "-89.6803"
	},
	{
		"id": "PGH",
		"name": "Pittsburgh",
		"code": "PGH",
		"city": "Pittsburgh",
		"stateShort": "PA",
		"stateLong": "Pennsylvania",
		"routes": ["Capitol-Limited", "Pennsylvanian"],
		"lat": "40.4447",
		"lon": "-79.9921"
	},
	{
		"id": "PIT",
		"name": "Pittsfield",
		"code": "PIT",
		"city": "Pittsfield",
		"stateShort": "MA",
		"stateLong": "Massachusetts",
		"routes": ["Berkshire-Flyer", "Lake-Shore-Limited"],
		"lat": "42.4514",
		"lon": "-73.2539"
	},
	{
		"id": "PLO",
		"name": "Plano",
		"code": "PLO",
		"city": "Plano",
		"stateShort": "IL",
		"stateLong": "Illinois",
		"routes": ["Illinois-Zephyr", "Carl-Sandburg"],
		"lat": "41.6622",
		"lon": "-88.5408"
	},
	{
		"id": "PLB",
		"name": "Plattsburgh",
		"code": "PLB",
		"city": "Plattsburgh",
		"stateShort": "NY",
		"stateLong": "New York",
		"routes": ["Adirondack"],
		"lat": "44.6975",
		"lon": "-73.4453"
	},
	{
		"id": "POS",
		"name": "Pomona",
		"code": "POS",
		"city": "Pomona",
		"stateShort": "CA",
		"stateLong": "California",
		"routes": ["Sunset-Limited", "Texas-Eagle"],
		"lat": "34.0592",
		"lon": "-117.7511"
	},
	{
		"id": "PON",
		"name": "Pontiac",
		"code": "PON",
		"city": "Pontiac",
		"stateShort": "IL",
		"stateLong": "Illinois",
		"routes": ["Lincoln-Service", "Texas-Eagle"],
		"lat": "40.8786",
		"lon": "-88.6369"
	},
	{
		"id": "PNT",
		"name": "Pontiac",
		"code": "PNT",
		"city": "Pontiac",
		"stateShort": "MI",
		"stateLong": "Michigan",
		"routes": ["Wolverine"],
		"lat": "42.6325",
		"lon": "-83.2922"
	},
	{
		"id": "PBF",
		"name": "Poplar Bluff",
		"code": "PBF",
		"city": "Poplar Bluff",
		"stateShort": "MO",
		"stateLong": "Missouri",
		"routes": ["Texas-Eagle"],
		"lat": "36.7536",
		"lon": "-90.3933"
	},
	{
		"id": "POH",
		"name": "Port Henry",
		"code": "POH",
		"city": "Port Henry",
		"stateShort": "NY",
		"stateLong": "New York",
		"routes": ["Adirondack"],
		"lat": "44.0425",
		"lon": "-73.4586"
	},
	{
		"id": "PTH",
		"name": "Port Huron",
		"code": "PTH",
		"city": "Port Huron",
		"stateShort": "MI",
		"stateLong": "Michigan",
		"routes": ["Blue-Water"],
		"lat": "42.9606",
		"lon": "-82.4439"
	},
	{
		"id": "PRK",
		"name": "Port Kent",
		"code": "PRK",
		"city": "Port Kent",
		"stateShort": "NY",
		"stateLong": "New York",
		"routes": ["Adirondack"],
		"lat": "44.5239",
		"lon": "-73.4036"
	},
	{
		"id": "POG",
		"name": "Portage",
		"code": "POG",
		"city": "Portage",
		"stateShort": "WI",
		"stateLong": "Wisconsin",
		"routes": ["Empire-Builder"],
		"lat": "43.5472",
		"lon": "-89.4678"
	},
	{
		"id": "POR",
		"name": "Portland",
		"code": "POR",
		"city": "Portland",
		"stateShort": "ME",
		"stateLong": "Maine",
		"routes": ["Downeaster"],
		"lat": "43.6536",
		"lon": "-70.2911"
	},
	{
		"id": "PDX",
		"name": "Portland",
		"code": "PDX",
		"city": "Portland",
		"stateShort": "OR",
		"stateLong": "Oregon",
		"routes": ["Amtrak-Cascades", "Coast-Starlight", "Empire-Builder"],
		"lat": "45.5289",
		"lon": "-122.6767"
	},
	{
		"id": "POU",
		"name": "Poughkeepsie",
		"code": "POU",
		"city": "Poughkeepsie",
		"stateShort": "NY",
		"stateLong": "New York",
		"routes": [
			"Adirondack",
			"Berkshire-Flyer",
			"Empire-Service",
			"Ethan-Allen-Express",
			"Lake-Shore-Limited",
			"Maple-Leaf"
		],
		"lat": "41.7072",
		"lon": "-73.9383"
	},
	{
		"id": "PRC",
		"name": "Prince",
		"code": "PRC",
		"city": "Prince",
		"stateShort": "WV",
		"stateLong": "West Virginia",
		"routes": ["Cardinal"],
		"lat": "37.8567",
		"lon": "-81.0606"
	},
	{
		"id": "PCT",
		"name": "Princeton",
		"code": "PCT",
		"city": "Princeton",
		"stateShort": "IL",
		"stateLong": "Illinois",
		"routes": [
			"California-Zephyr",
			"Illinois-Zephyr",
			"Carl-Sandburg",
			"Southwest-Chief"
		],
		"lat": "41.3853",
		"lon": "-89.4669"
	},
	{
		"id": "PJC",
		"name": "Princeton Junction",
		"code": "PJC",
		"city": "West Windsor",
		"stateShort": "NJ",
		"stateLong": "New Jersey",
		"routes": ["Keystone-Service", "Northeast-Regional"],
		"lat": "40.3167",
		"lon": "-74.6233"
	},
	{
		"id": "PVD",
		"name": "Providence",
		"code": "PVD",
		"city": "Providence",
		"stateShort": "RI",
		"stateLong": "Rhode Island",
		"routes": ["Acela", "Northeast-Regional"],
		"lat": "41.8292",
		"lon": "-71.4133"
	},
	{
		"id": "PRO",
		"name": "Provo",
		"code": "PRO",
		"city": "Provo",
		"stateShort": "UT",
		"stateLong": "Utah",
		"routes": ["California-Zephyr"],
		"lat": "40.2258",
		"lon": "-111.6639"
	},
	{
		"id": "PUR",
		"name": "Purcell",
		"code": "PUR",
		"city": "Purcell",
		"stateShort": "OK",
		"stateLong": "Oklahoma",
		"routes": ["Heartland-Flyer"],
		"lat": "35.0119",
		"lon": "-97.3572"
	},
	{
		"id": "QAN",
		"name": "Quantico",
		"code": "QAN",
		"city": "Quantico",
		"stateShort": "VA",
		"stateLong": "Virginia",
		"routes": ["Carolinian", "Northeast-Regional"],
		"lat": "38.5217",
		"lon": "-77.2931"
	},
	{
		"id": "QCY",
		"name": "Quincy",
		"code": "QCY",
		"city": "Quincy",
		"stateShort": "IL",
		"stateLong": "Illinois",
		"routes": ["Illinois-Zephyr", "Carl-Sandburg"],
		"lat": "39.9569",
		"lon": "-91.3686"
	},
	{
		"id": "RGH",
		"name": "Raleigh Union",
		"code": "RGH",
		"city": "Raleigh",
		"stateShort": "NC",
		"stateLong": "North Carolina",
		"routes": ["Carolinian", "Piedmont", "Silver-Star"],
		"lat": "35.7772",
		"lon": "-78.6472"
	},
	{
		"id": "RPH",
		"name": "Randolph",
		"code": "RPH",
		"city": "Randolph",
		"stateShort": "VT",
		"stateLong": "Vermont",
		"routes": ["Vermonter"],
		"lat": "43.9228",
		"lon": "-72.6658"
	},
	{
		"id": "RTL",
		"name": "Rantoul",
		"code": "RTL",
		"city": "Rantoul",
		"stateShort": "IL",
		"stateLong": "Illinois",
		"routes": ["Illini", "Saluki"],
		"lat": "40.3119",
		"lon": "-88.1589"
	},
	{
		"id": "RAT",
		"name": "Raton",
		"code": "RAT",
		"city": "Raton",
		"stateShort": "NM",
		"stateLong": "New Mexico",
		"routes": ["Southwest-Chief"],
		"lat": "36.9011",
		"lon": "-104.4378"
	},
	{
		"id": "RDW",
		"name": "Red Wing",
		"code": "RDW",
		"city": "Red Wing",
		"stateShort": "MN",
		"stateLong": "Minnesota",
		"routes": ["Empire-Builder"],
		"lat": "44.5664",
		"lon": "-92.5372"
	},
	{
		"id": "RDD",
		"name": "Redding",
		"code": "RDD",
		"city": "Redding",
		"stateShort": "CA",
		"stateLong": "California",
		"routes": ["Coast-Starlight"],
		"lat": "40.5836",
		"lon": "-122.3933"
	},
	{
		"id": "RNO",
		"name": "Reno",
		"code": "RNO",
		"city": "Reno",
		"stateShort": "NV",
		"stateLong": "Nevada",
		"routes": ["California-Zephyr"],
		"lat": "39.5286",
		"lon": "-119.8117"
	},
	{
		"id": "REN",
		"name": "Rensselaer",
		"code": "REN",
		"city": "Rensselaer",
		"stateShort": "IN",
		"stateLong": "Indiana",
		"routes": ["Cardinal"],
		"lat": "40.9433",
		"lon": "-87.155"
	},
	{
		"id": "RHI",
		"name": "Rhinecliff–Kingston",
		"code": "RHI",
		"city": "Rhinecliff",
		"stateShort": "NY",
		"stateLong": "New York",
		"routes": [
			"Adirondack",
			"Berkshire-Flyer",
			"Empire-Service",
			"Ethan-Allen-Express",
			"Lake-Shore-Limited",
			"Maple-Leaf"
		],
		"lat": "41.9214",
		"lon": "-73.9514"
	},
	{
		"id": "RIC",
		"name": "Richmond",
		"code": "RIC",
		"city": "Richmond",
		"stateShort": "CA",
		"stateLong": "California",
		"routes": ["California-Zephyr", "Capitol-Corridor", "San-Joaquins"],
		"lat": "37.9367",
		"lon": "-122.3531"
	},
	{
		"id": "RVM",
		"name": "Richmond Main Street",
		"code": "RVM",
		"city": "Richmond",
		"stateShort": "VA",
		"stateLong": "Virginia",
		"routes": ["Northeast-Regional"],
		"lat": "37.5347",
		"lon": "-77.4292"
	},
	{
		"id": "RVR",
		"name": "Richmond Staples Mill Road",
		"code": "RVR",
		"city": "Dumbarton",
		"stateShort": "VA",
		"stateLong": "Virginia",
		"routes": [
			"Carolinian",
			"Northeast-Regional",
			"Palmetto",
			"Silver-Meteor",
			"Silver-Star"
		],
		"lat": "37.6178",
		"lon": "-77.4969"
	},
	{
		"id": "RIV",
		"name": "Riverside",
		"code": "RIV",
		"city": "Riverside",
		"stateShort": "CA",
		"stateLong": "California",
		"routes": ["Southwest-Chief"],
		"lat": "33.9758",
		"lon": "-117.37"
	},
	{
		"id": "RNK",
		"name": "Roanoke",
		"code": "RNK",
		"city": "Roanoke",
		"stateShort": "VA",
		"stateLong": "Virginia",
		"routes": ["Northeast-Regional"],
		"lat": "37.2733",
		"lon": "-79.9423"
	},
	{
		"id": "ROC",
		"name": "Rochester",
		"code": "ROC",
		"city": "Rochester",
		"stateShort": "NY",
		"stateLong": "New York",
		"routes": ["Empire-Service", "Lake-Shore-Limited", "Maple-Leaf"],
		"lat": "43.1636",
		"lon": "-77.6083"
	},
	{
		"id": "RLN",
		"name": "Rocklin",
		"code": "RLN",
		"city": "Rocklin",
		"stateShort": "CA",
		"stateLong": "California",
		"routes": ["Capitol-Corridor"],
		"lat": "38.7911",
		"lon": "-121.2375"
	},
	{
		"id": "RMT",
		"name": "Rocky Mount",
		"code": "RMT",
		"city": "Rocky Mount",
		"stateShort": "NC",
		"stateLong": "North Carolina",
		"routes": ["Carolinian", "Palmetto", "Silver-Meteor", "Silver-Star"],
		"lat": "35.9381",
		"lon": "-77.7978"
	},
	{
		"id": "RKV",
		"name": "Rockville",
		"code": "RKV",
		"city": "Rockville",
		"stateShort": "MD",
		"stateLong": "Maryland",
		"routes": ["Capitol-Limited"],
		"lat": "39.0842",
		"lon": "-77.1461"
	},
	{
		"id": "ROM",
		"name": "Rome",
		"code": "ROM",
		"city": "Rome",
		"stateShort": "NY",
		"stateLong": "New York",
		"routes": ["Empire-Service", "Maple-Leaf"],
		"lat": "43.1994",
		"lon": "-75.45"
	},
	{
		"id": "RSV",
		"name": "Roseville",
		"code": "RSV",
		"city": "Roseville",
		"stateShort": "CA",
		"stateLong": "California",
		"routes": ["California-Zephyr", "Capitol-Corridor"],
		"lat": "38.75",
		"lon": "-121.2861"
	},
	{
		"id": "RSP",
		"name": "Rouses Point",
		"code": "RSP",
		"city": "Rouses Point",
		"stateShort": "NY",
		"stateLong": "New York",
		"routes": ["Adirondack"],
		"lat": "44.9947",
		"lon": "-73.3711"
	},
	{
		"id": "RTE",
		"name": "Route 128–University Park",
		"code": "RTE",
		"city": "Westwood",
		"stateShort": "MA",
		"stateLong": "Massachusetts",
		"routes": ["Acela", "Northeast-Regional"],
		"lat": "42.2103",
		"lon": "-71.1472"
	},
	{
		"id": "ROY",
		"name": "Royal Oak",
		"code": "ROY",
		"city": "Royal Oak",
		"stateShort": "MI",
		"stateLong": "Michigan",
		"routes": ["Wolverine"],
		"lat": "42.4892",
		"lon": "-83.1475"
	},
	{
		"id": "RUG",
		"name": "Rugby",
		"code": "RUG",
		"city": "Rugby",
		"stateShort": "ND",
		"stateLong": "North Dakota",
		"routes": ["Empire-Builder"],
		"lat": "48.3697",
		"lon": "-99.9978"
	},
	{
		"id": "RUD",
		"name": "Rutland",
		"code": "RUD",
		"city": "Rutland",
		"stateShort": "VT",
		"stateLong": "Vermont",
		"routes": ["Ethan-Allen-Express"],
		"lat": "43.6058",
		"lon": "-72.9817"
	},
	{
		"id": "SAO",
		"name": "Saco–Biddeford",
		"code": "SAO",
		"city": "Saco",
		"stateShort": "ME",
		"stateLong": "Maine",
		"routes": ["Downeaster"],
		"lat": "43.4961",
		"lon": "-70.4492"
	},
	{
		"id": "SAC",
		"name": "Sacramento",
		"code": "SAC",
		"city": "Sacramento",
		"stateShort": "CA",
		"stateLong": "California",
		"routes": [
			"California-Zephyr",
			"Capitol-Corridor",
			"Coast-Starlight",
			"San-Joaquins"
		],
		"lat": "38.5847",
		"lon": "-121.5006"
	},
	{
		"id": "SLM",
		"name": "Salem",
		"code": "SLM",
		"city": "Salem",
		"stateShort": "OR",
		"stateLong": "Oregon",
		"routes": ["Amtrak-Cascades", "Coast-Starlight"],
		"lat": "44.9322",
		"lon": "-123.0281"
	},
	{
		"id": "SNS",
		"name": "Salinas",
		"code": "SNS",
		"city": "Salinas",
		"stateShort": "CA",
		"stateLong": "California",
		"routes": ["Coast-Starlight"],
		"lat": "36.6792",
		"lon": "-121.6567"
	},
	{
		"id": "SAL",
		"name": "Salisbury",
		"code": "SAL",
		"city": "Salisbury",
		"stateShort": "NC",
		"stateLong": "North Carolina",
		"routes": ["Carolinian", "Crescent", "Piedmont"],
		"lat": "35.6672",
		"lon": "-80.4661"
	},
	{
		"id": "SLC",
		"name": "Salt Lake City",
		"code": "SLC",
		"city": "Salt Lake City",
		"stateShort": "UT",
		"stateLong": "Utah",
		"routes": ["California-Zephyr"],
		"lat": "40.7628",
		"lon": "-111.9083"
	},
	{
		"id": "SAS",
		"name": "San Antonio",
		"code": "SAS",
		"city": "San Antonio",
		"stateShort": "TX",
		"stateLong": "Texas",
		"routes": ["Sunset-Limited", "Texas-Eagle"],
		"lat": "29.42",
		"lon": "-98.4778"
	},
	{
		"id": "SNB",
		"name": "San Bernardino",
		"code": "SNB",
		"city": "San Bernardino",
		"stateShort": "CA",
		"stateLong": "California",
		"routes": ["Southwest-Chief"],
		"lat": "34.1042",
		"lon": "-117.3097"
	},
	{
		"id": "SNP",
		"name": "San Clemente Pier",
		"code": "SNP",
		"city": "San Clemente",
		"stateShort": "CA",
		"stateLong": "California",
		"routes": ["Pacific-Surfliner"],
		"lat": "33.4192",
		"lon": "-117.6194"
	},
	{
		"id": "OLT",
		"name": "San Diego Old Town",
		"code": "OLT",
		"city": "San Diego",
		"stateShort": "CA",
		"stateLong": "California",
		"routes": ["Pacific-Surfliner"],
		"lat": "32.7553",
		"lon": "-117.1994"
	},
	{
		"id": "SAN",
		"name": "San Diego Santa Fe Depot",
		"code": "SAN",
		"city": "San Diego",
		"stateShort": "CA",
		"stateLong": "California",
		"routes": ["Pacific-Surfliner"],
		"lat": "32.7167",
		"lon": "-117.1694"
	},
	{
		"id": "SJC",
		"name": "San Jose Diridon",
		"code": "SJC",
		"city": "San Jose",
		"stateShort": "CA",
		"stateLong": "California",
		"routes": ["Capitol-Corridor", "Coast-Starlight"],
		"lat": "37.33",
		"lon": "-121.9031"
	},
	{
		"id": "SNC",
		"name": "San Juan Capistrano",
		"code": "SNC",
		"city": "San Juan Capistrano",
		"stateShort": "CA",
		"stateLong": "California",
		"routes": ["Pacific-Surfliner"],
		"lat": "33.5022",
		"lon": "-117.6642"
	},
	{
		"id": "SLO",
		"name": "San Luis Obispo",
		"code": "SLO",
		"city": "San Luis Obispo",
		"stateShort": "CA",
		"stateLong": "California",
		"routes": ["Coast-Starlight", "Pacific-Surfliner"],
		"lat": "35.2764",
		"lon": "-120.6547"
	},
	{
		"id": "SMC",
		"name": "San Marcos",
		"code": "SMC",
		"city": "San Marcos",
		"stateShort": "TX",
		"stateLong": "Texas",
		"routes": ["Texas-Eagle"],
		"lat": "29.8769",
		"lon": "-97.9406"
	},
	{
		"id": "SND",
		"name": "Sanderson",
		"code": "SND",
		"city": "Sanderson",
		"stateShort": "TX",
		"stateLong": "Texas",
		"routes": ["Sunset-Limited", "Texas-Eagle"],
		"lat": "30.14",
		"lon": "-102.3992"
	},
	{
		"id": "SPT",
		"name": "Sandpoint",
		"code": "SPT",
		"city": "Sandpoint",
		"stateShort": "ID",
		"stateLong": "Idaho",
		"routes": ["Empire-Builder"],
		"lat": "48.2764",
		"lon": "-116.5481"
	},
	{
		"id": "SKY",
		"name": "Sandusky",
		"code": "SKY",
		"city": "Sandusky",
		"stateShort": "OH",
		"stateLong": "Ohio",
		"routes": ["Capitol-Limited", "Lake-Shore-Limited"],
		"lat": "41.4406",
		"lon": "-82.7186"
	},
	{
		"id": "SFA",
		"name": "Sanford",
		"code": "SFA",
		"city": "Sanford",
		"stateShort": "FL",
		"stateLong": "Florida",
		"routes": ["Auto-Train"],
		"lat": "28.8072",
		"lon": "-81.2889"
	},
	{
		"id": "SNA",
		"name": "Santa Ana",
		"code": "SNA",
		"city": "Santa Ana",
		"stateShort": "CA",
		"stateLong": "California",
		"routes": ["Pacific-Surfliner"],
		"lat": "33.7517",
		"lon": "-117.8564"
	},
	{
		"id": "SBA",
		"name": "Santa Barbara",
		"code": "SBA",
		"city": "Santa Barbara",
		"stateShort": "CA",
		"stateLong": "California",
		"routes": ["Coast-Starlight", "Pacific-Surfliner"],
		"lat": "34.4136",
		"lon": "-119.6925"
	},
	{
		"id": "GAC",
		"name": "Santa Clara–Great America",
		"code": "GAC",
		"city": "Santa Clara",
		"stateShort": "CA",
		"stateLong": "California",
		"routes": ["Capitol-Corridor"],
		"lat": "37.4067",
		"lon": "-121.9669"
	},
	{
		"id": "SCC",
		"name": "Santa Clara–Transit Center",
		"code": "SCC",
		"city": "Santa Clara",
		"stateShort": "CA",
		"stateLong": "California",
		"routes": ["Capitol-Corridor"],
		"lat": "37.3531",
		"lon": "-121.9364"
	},
	{
		"id": "SAR",
		"name": "Saratoga Springs",
		"code": "SAR",
		"city": "Saratoga Springs",
		"stateShort": "NY",
		"stateLong": "New York",
		"routes": ["Adirondack", "Ethan-Allen-Express"],
		"lat": "43.0828",
		"lon": "-73.8103"
	},
	{
		"id": "SAV",
		"name": "Savannah",
		"code": "SAV",
		"city": "Savannah",
		"stateShort": "GA",
		"stateLong": "Georgia",
		"routes": ["Palmetto", "Silver-Meteor", "Silver-Star"],
		"lat": "32.0836",
		"lon": "-81.1486"
	},
	{
		"id": "SDY",
		"name": "Schenectady",
		"code": "SDY",
		"city": "Schenectady",
		"stateShort": "NY",
		"stateLong": "New York",
		"routes": [
			"Adirondack",
			"Empire-Service",
			"Ethan-Allen-Express",
			"Lake-Shore-Limited",
			"Maple-Leaf"
		],
		"lat": "42.8147",
		"lon": "-73.9428"
	},
	{
		"id": "SCH",
		"name": "Schriever",
		"code": "SCH",
		"city": "Schriever",
		"stateShort": "LA",
		"stateLong": "Louisiana",
		"routes": ["Sunset-Limited"],
		"lat": "29.7467",
		"lon": "-90.8156"
	},
	{
		"id": "SEA",
		"name": "Seattle King Street",
		"code": "SEA",
		"city": "Seattle",
		"stateShort": "WA",
		"stateLong": "Washington",
		"routes": ["Amtrak-Cascades", "Coast-Starlight", "Empire-Builder"],
		"lat": "47.5983",
		"lon": "-122.3297"
	},
	{
		"id": "SBG",
		"name": "Sebring",
		"code": "SBG",
		"city": "Sebring",
		"stateShort": "FL",
		"stateLong": "Florida",
		"routes": ["Silver-Meteor", "Silver-Star"],
		"lat": "27.4961",
		"lon": "-81.4347"
	},
	{
		"id": "SED",
		"name": "Sedalia",
		"code": "SED",
		"city": "Sedalia",
		"stateShort": "MO",
		"stateLong": "Missouri",
		"routes": ["Missouri-River-Runner"],
		"lat": "38.7117",
		"lon": "-93.2283"
	},
	{
		"id": "SSM",
		"name": "Selma",
		"code": "SSM",
		"city": "Selma",
		"stateShort": "NC",
		"stateLong": "North Carolina",
		"routes": ["Carolinian", "Palmetto"],
		"lat": "35.5328",
		"lon": "-78.28"
	},
	{
		"id": "SBY",
		"name": "Shelby",
		"code": "SBY",
		"city": "Shelby",
		"stateShort": "MT",
		"stateLong": "Montana",
		"routes": ["Empire-Builder"],
		"lat": "48.5069",
		"lon": "-111.8572"
	},
	{
		"id": "SIM",
		"name": "Simi Valley",
		"code": "SIM",
		"city": "Simi Valley",
		"stateShort": "CA",
		"stateLong": "California",
		"routes": ["Coast-Starlight", "Pacific-Surfliner"],
		"lat": "34.2703",
		"lon": "-118.6953"
	},
	{
		"id": "SDL",
		"name": "Slidell",
		"code": "SDL",
		"city": "Slidell",
		"stateShort": "LA",
		"stateLong": "Louisiana",
		"routes": ["Crescent"],
		"lat": "30.2783",
		"lon": "-89.7828"
	},
	{
		"id": "SOL",
		"name": "Solana Beach",
		"code": "SOL",
		"city": "Solana Beach",
		"stateShort": "CA",
		"stateLong": "California",
		"routes": ["Pacific-Surfliner"],
		"lat": "32.9928",
		"lon": "-117.2714"
	},
	{
		"id": "SOB",
		"name": "South Bend",
		"code": "SOB",
		"city": "South Bend",
		"stateShort": "IN",
		"stateLong": "Indiana",
		"routes": ["Capitol-Limited", "Lake-Shore-Limited"],
		"lat": "41.6783",
		"lon": "-86.2875"
	},
	{
		"id": "SPM",
		"name": "South Portsmouth–South Shore",
		"code": "SPM",
		"city": "South Shore",
		"stateShort": "KY",
		"stateLong": "Kentucky",
		"routes": ["Cardinal"],
		"lat": "38.7211",
		"lon": "-82.9636"
	},
	{
		"id": "SOP",
		"name": "Southern Pines",
		"code": "SOP",
		"city": "Southern Pines",
		"stateShort": "NC",
		"stateLong": "North Carolina",
		"routes": ["Silver-Star"],
		"lat": "35.1756",
		"lon": "-79.3903"
	},
	{
		"id": "SPB",
		"name": "Spartanburg",
		"code": "SPB",
		"city": "Spartanburg",
		"stateShort": "SC",
		"stateLong": "South Carolina",
		"routes": ["Crescent"],
		"lat": "34.9536",
		"lon": "-81.9375"
	},
	{
		"id": "SPK",
		"name": "Spokane",
		"code": "SPK",
		"city": "Spokane",
		"stateShort": "WA",
		"stateLong": "Washington",
		"routes": ["Empire-Builder"],
		"lat": "47.6564",
		"lon": "-117.4153"
	},
	{
		"id": "SPI",
		"name": "Springfield",
		"code": "SPI",
		"city": "Springfield",
		"stateShort": "IL",
		"stateLong": "Illinois",
		"routes": ["Lincoln-Service", "Texas-Eagle"],
		"lat": "39.8022",
		"lon": "-89.6514"
	},
	{
		"id": "SPG",
		"name": "Springfield",
		"code": "SPG",
		"city": "Springfield",
		"stateShort": "MA",
		"stateLong": "Massachusetts",
		"routes": [
			"Hartford-Line",
			"Lake-Shore-Limited",
			"Northeast-Regional",
			"Valley-Flyer",
			"Vermonter"
		],
		"lat": "42.1061",
		"lon": "-72.5931"
	},
	{
		"id": "SAB",
		"name": "St. Albans",
		"code": "SAB",
		"city": "St. Albans",
		"stateShort": "VT",
		"stateLong": "Vermont",
		"routes": ["Vermonter"],
		"lat": "44.8122",
		"lon": "-73.0861"
	},
	{
		"id": "SCA",
		"name": "St. Catharines",
		"code": "SCA",
		"city": "St. Catherines",
		"stateShort": "ON",
		"stateLong": "Ontario",
		"routes": ["Maple-Leaf"],
		"lat": "43.1478",
		"lon": "-79.2564"
	},
	{
		"id": "SCD",
		"name": "St. Cloud",
		"code": "SCD",
		"city": "St. Cloud",
		"stateShort": "MN",
		"stateLong": "Minnesota",
		"routes": ["Empire-Builder"],
		"lat": "45.5678",
		"lon": "-94.1489"
	},
	{
		"id": "SJM",
		"name": "St. Joseph–Benton Harbor",
		"code": "SJM",
		"city": "St. Joseph",
		"stateShort": "MI",
		"stateLong": "Michigan",
		"routes": ["Pere-Marquette"],
		"lat": "42.1068",
		"lon": "-86.4867"
	},
	{
		"id": "SLQ",
		"name": "Saint-Lambert",
		"code": "SLQ",
		"city": "Saint-Lambert",
		"stateShort": "QC",
		"stateLong": "Quebec",
		"routes": ["Adirondack"],
		"lat": "45.4992",
		"lon": "-73.5072"
	},
	{
		"id": "STL",
		"name": "St. Louis Gateway",
		"code": "STL",
		"city": "St. Louis",
		"stateShort": "MO",
		"stateLong": "Missouri",
		"routes": ["Lincoln-Service", "Missouri-River-Runner", "Texas-Eagle"],
		"lat": "38.6242",
		"lon": "-90.2036"
	},
	{
		"id": "MSP",
		"name": "St. Paul–Minneapolis Union",
		"code": "MSP",
		"city": "St. Paul",
		"stateShort": "MN",
		"stateLong": "Minnesota",
		"routes": ["Empire-Builder"],
		"lat": "44.9478",
		"lon": "-93.0861"
	},
	{
		"id": "STM",
		"name": "Stamford",
		"code": "STM",
		"city": "Stamford",
		"stateShort": "CT",
		"stateLong": "Connecticut",
		"routes": ["Acela", "Northeast-Regional", "Vermonter"],
		"lat": "41.0469",
		"lon": "-73.5414"
	},
	{
		"id": "STN",
		"name": "Stanley",
		"code": "STN",
		"city": "Stanley",
		"stateShort": "ND",
		"stateLong": "North Dakota",
		"routes": ["Empire-Builder"],
		"lat": "48.32",
		"lon": "-102.3894"
	},
	{
		"id": "STW",
		"name": "Stanwood",
		"code": "STW",
		"city": "Stanwood",
		"stateShort": "WA",
		"stateLong": "Washington",
		"routes": ["Amtrak-Cascades"],
		"lat": "48.2428",
		"lon": "-122.3503"
	},
	{
		"id": "SPL",
		"name": "Staples",
		"code": "SPL",
		"city": "Staples",
		"stateShort": "MN",
		"stateLong": "Minnesota",
		"routes": ["Empire-Builder"],
		"lat": "46.3544",
		"lon": "-94.7953"
	},
	{
		"id": "STA",
		"name": "Staunton",
		"code": "STA",
		"city": "Staunton",
		"stateShort": "VA",
		"stateLong": "Virginia",
		"routes": ["Cardinal"],
		"lat": "38.1475",
		"lon": "-79.072"
	},
	{
		"id": "SKT",
		"name": "Stockton Downtown",
		"code": "SKT",
		"city": "Stockton",
		"stateShort": "CA",
		"stateLong": "California",
		"routes": ["San-Joaquins"],
		"lat": "37.9569",
		"lon": "-121.2789"
	},
	{
		"id": "SKN",
		"name": "Stockton San Joaquin Street",
		"code": "SKN",
		"city": "Stockton",
		"stateShort": "CA",
		"stateLong": "California",
		"routes": ["San-Joaquins"],
		"lat": "37.9453",
		"lon": "-121.2856"
	},
	{
		"id": "SVT",
		"name": "Sturtevant",
		"code": "SVT",
		"city": "Sturtevant",
		"stateShort": "WI",
		"stateLong": "Wisconsin",
		"routes": ["Hiawatha-Service"],
		"lat": "42.7183",
		"lon": "-87.9061"
	},
	{
		"id": "SUI",
		"name": "Suisun–Fairfield",
		"code": "SUI",
		"city": "Suisun City",
		"stateShort": "CA",
		"stateLong": "California",
		"routes": ["Capitol-Corridor"],
		"lat": "38.2433",
		"lon": "-122.0414"
	},
	{
		"id": "SMT",
		"name": "Summit",
		"code": "SMT",
		"city": "Summit",
		"stateShort": "IL",
		"stateLong": "Illinois",
		"routes": ["Lincoln-Service"],
		"lat": "41.7761",
		"lon": "-87.8167"
	},
	{
		"id": "SYR",
		"name": "Syracuse",
		"code": "SYR",
		"city": "Syracuse",
		"stateShort": "NY",
		"stateLong": "New York",
		"routes": ["Empire-Service", "Lake-Shore-Limited", "Maple-Leaf"],
		"lat": "43.0767",
		"lon": "-76.1692"
	},
	{
		"id": "TAC",
		"name": "Tacoma Dome",
		"code": "TAC",
		"city": "Tacoma",
		"stateShort": "WA",
		"stateLong": "Washington",
		"routes": ["Amtrak-Cascades", "Coast-Starlight"],
		"lat": "47.2397",
		"lon": "-122.4278"
	},
	{
		"id": "TPA",
		"name": "Tampa",
		"code": "TPA",
		"city": "Tampa",
		"stateShort": "FL",
		"stateLong": "Florida",
		"routes": ["Silver-Star"],
		"lat": "27.9522",
		"lon": "-82.4511"
	},
	{
		"id": "TAY",
		"name": "Taylor",
		"code": "TAY",
		"city": "Taylor",
		"stateShort": "TX",
		"stateLong": "Texas",
		"routes": ["Texas-Eagle"],
		"lat": "30.5678",
		"lon": "-97.4081"
	},
	{
		"id": "TPL",
		"name": "Temple",
		"code": "TPL",
		"city": "Temple",
		"stateShort": "TX",
		"stateLong": "Texas",
		"routes": ["Texas-Eagle"],
		"lat": "31.0958",
		"lon": "-97.3453"
	},
	{
		"id": "TXA",
		"name": "Texarkana",
		"code": "TXA",
		"city": "Texarkana",
		"stateShort": "AR",
		"stateLong": "Arkansas",
		"routes": ["Texas-Eagle"],
		"lat": "33.42",
		"lon": "-94.0425"
	},
	{
		"id": "THN",
		"name": "Thurmond",
		"code": "THN",
		"city": "Thurmond",
		"stateShort": "WV",
		"stateLong": "West Virginia",
		"routes": ["Cardinal"],
		"lat": "37.9572",
		"lon": "-81.0789"
	},
	{
		"id": "FTC",
		"name": "Ticonderoga",
		"code": "FTC",
		"city": "Ticonderoga",
		"stateShort": "NY",
		"stateLong": "New York",
		"routes": ["Adirondack"],
		"lat": "43.8539",
		"lon": "-73.3897"
	},
	{
		"id": "TCA",
		"name": "Toccoa",
		"code": "TCA",
		"city": "Toccoa",
		"stateShort": "GA",
		"stateLong": "Georgia",
		"routes": ["Crescent"],
		"lat": "34.5786",
		"lon": "-83.3317"
	},
	{
		"id": "TOL",
		"name": "Toledo",
		"code": "TOL",
		"city": "Toledo",
		"stateShort": "OH",
		"stateLong": "Ohio",
		"routes": ["Capitol-Limited", "Lake-Shore-Limited"],
		"lat": "41.6378",
		"lon": "-83.5417"
	},
	{
		"id": "TOH",
		"name": "Tomah",
		"code": "TOH",
		"city": "Tomah",
		"stateShort": "WI",
		"stateLong": "Wisconsin",
		"routes": ["Empire-Builder"],
		"lat": "43.9861",
		"lon": "-90.5056"
	},
	{
		"id": "TOP",
		"name": "Topeka",
		"code": "TOP",
		"city": "Topeka",
		"stateShort": "KS",
		"stateLong": "Kansas",
		"routes": ["Southwest-Chief"],
		"lat": "39.0514",
		"lon": "-95.6647"
	},
	{
		"id": "TWO",
		"name": "Toronto Union",
		"code": "TWO",
		"city": "Toronto",
		"stateShort": "ON",
		"stateLong": "Ontario",
		"routes": ["Maple-Leaf"],
		"lat": "43.6453",
		"lon": "-79.3806"
	},
	{
		"id": "TRE",
		"name": "Trenton",
		"code": "TRE",
		"city": "Trenton",
		"stateShort": "NJ",
		"stateLong": "New Jersey",
		"routes": [
			"Cardinal",
			"Carolinian",
			"Crescent",
			"Keystone-Service",
			"Northeast-Regional",
			"Palmetto",
			"Pennsylvanian",
			"Silver-Meteor",
			"Silver-Star",
			"Vermonter"
		],
		"lat": "40.2189",
		"lon": "-74.7542"
	},
	{
		"id": "TRI",
		"name": "Trinidad",
		"code": "TRI",
		"city": "Trinidad",
		"stateShort": "CO",
		"stateLong": "Colorado",
		"routes": ["Southwest-Chief"],
		"lat": "37.1733",
		"lon": "-104.5081"
	},
	{
		"id": "TRM",
		"name": "Troy",
		"code": "TRM",
		"city": "Troy",
		"stateShort": "MI",
		"stateLong": "Michigan",
		"routes": ["Wolverine"],
		"lat": "42.5425",
		"lon": "-83.1911"
	},
	{
		"id": "TRU",
		"name": "Truckee",
		"code": "TRU",
		"city": "Truckee",
		"stateShort": "CA",
		"stateLong": "California",
		"routes": ["California-Zephyr"],
		"lat": "39.3275",
		"lon": "-120.1856"
	},
	{
		"id": "TUS",
		"name": "Tucson",
		"code": "TUS",
		"city": "Tucson",
		"stateShort": "AZ",
		"stateLong": "Arizona",
		"routes": ["Sunset-Limited", "Texas-Eagle"],
		"lat": "32.2231",
		"lon": "-110.9667"
	},
	{
		"id": "TUK",
		"name": "Tukwila",
		"code": "TUK",
		"city": "Tukwila",
		"stateShort": "WA",
		"stateLong": "Washington",
		"routes": ["Amtrak-Cascades"],
		"lat": "47.4606",
		"lon": "-122.2406"
	},
	{
		"id": "TRK",
		"name": "Turlock–Denair",
		"code": "TRK",
		"city": "Denair",
		"stateShort": "CA",
		"stateLong": "California",
		"routes": ["San-Joaquins"],
		"lat": "37.5272",
		"lon": "-120.7981"
	},
	{
		"id": "TCL",
		"name": "Tuscaloosa",
		"code": "TCL",
		"city": "Tuscaloosa",
		"stateShort": "AL",
		"stateLong": "Alabama",
		"routes": ["Crescent"],
		"lat": "33.1933",
		"lon": "-87.56"
	},
	{
		"id": "TYR",
		"name": "Tyrone",
		"code": "TYR",
		"city": "Tyrone",
		"stateShort": "PA",
		"stateLong": "Pennsylvania",
		"routes": ["Pennsylvanian"],
		"lat": "40.6689",
		"lon": "-78.2389"
	},
	{
		"id": "UCA",
		"name": "Utica",
		"code": "UCA",
		"city": "Utica",
		"stateShort": "NY",
		"stateLong": "New York",
		"routes": ["Empire-Service", "Lake-Shore-Limited", "Maple-Leaf"],
		"lat": "43.1042",
		"lon": "-75.2281"
	},
	{
		"id": "VNC",
		"name": "Van Nuys",
		"code": "VNC",
		"city": "Van Nuys",
		"stateShort": "CA",
		"stateLong": "California",
		"routes": ["Coast-Starlight", "Pacific-Surfliner"],
		"lat": "34.2114",
		"lon": "-118.4483"
	},
	{
		"id": "VAC",
		"name": "Vancouver Pacific Central",
		"code": "VAC",
		"city": "Vancouver",
		"stateShort": "BC",
		"stateLong": "British Columbia",
		"routes": ["Amtrak-Cascades"],
		"lat": "49.2736",
		"lon": "-123.0981"
	},
	{
		"id": "VAN",
		"name": "Vancouver",
		"code": "VAN",
		"city": "Vancouver",
		"stateShort": "WA",
		"stateLong": "Washington",
		"routes": ["Amtrak-Cascades", "Coast-Starlight", "Empire-Builder"],
		"lat": "45.6289",
		"lon": "-122.6864"
	},
	{
		"id": "VEC",
		"name": "Ventura",
		"code": "VEC",
		"city": "Ventura",
		"stateShort": "CA",
		"stateLong": "California",
		"routes": ["Pacific-Surfliner"],
		"lat": "34.2769",
		"lon": "-119.3"
	},
	{
		"id": "VRV",
		"name": "Victorville",
		"code": "VRV",
		"city": "Victorville",
		"stateShort": "CA",
		"stateLong": "California",
		"routes": ["Southwest-Chief"],
		"lat": "34.5375",
		"lon": "-117.2933"
	},
	{
		"id": "WFD",
		"name": "Wallingford",
		"code": "WFD",
		"city": "Wallingford",
		"stateShort": "CT",
		"stateLong": "Connecticut",
		"routes": ["Hartford-Line", "Northeast-Regional", "Valley-Flyer"],
		"lat": "41.4569",
		"lon": "-72.8249"
	},
	{
		"id": "WNR",
		"name": "Walnut Ridge",
		"code": "WNR",
		"city": "Walnut Ridge",
		"stateShort": "AR",
		"stateLong": "Arkansas",
		"routes": ["Texas-Eagle"],
		"lat": "36.0675",
		"lon": "-90.9567"
	},
	{
		"id": "WAR",
		"name": "Warrensburg",
		"code": "WAR",
		"city": "Warrensburg",
		"stateShort": "MO",
		"stateLong": "Missouri",
		"routes": ["Missouri-River-Runner"],
		"lat": "38.7628",
		"lon": "-93.7408"
	},
	{
		"id": "WAC",
		"name": "Wasco",
		"code": "WAC",
		"city": "Wasco",
		"stateShort": "CA",
		"stateLong": "California",
		"routes": ["San-Joaquins"],
		"lat": "35.5942",
		"lon": "-119.3319"
	},
	{
		"id": "WAS",
		"name": "Washington Union",
		"code": "WAS",
		"city": "Washington",
		"stateShort": "DC",
		"stateLong": "District of Columbia",
		"routes": [
			"Acela",
			"Capitol-Limited",
			"Cardinal",
			"Carolinian",
			"Crescent",
			"Northeast-Regional",
			"Palmetto",
			"Silver-Meteor",
			"Silver-Star",
			"Vermonter"
		],
		"lat": "38.8972",
		"lon": "-77.0064"
	},
	{
		"id": "WAH",
		"name": "Washington",
		"code": "WAH",
		"city": "Washington",
		"stateShort": "MO",
		"stateLong": "Missouri",
		"routes": ["Missouri-River-Runner"],
		"lat": "38.5617",
		"lon": "-91.0125"
	},
	{
		"id": "WAB",
		"name": "Waterbury–Stowe",
		"code": "WAB",
		"city": "Waterbury",
		"stateShort": "VT",
		"stateLong": "Vermont",
		"routes": ["Vermonter"],
		"lat": "44.335",
		"lon": "-72.7517"
	},
	{
		"id": "WTI",
		"name": "Waterloo",
		"code": "WTI",
		"city": "Waterloo",
		"stateShort": "IN",
		"stateLong": "Indiana",
		"routes": ["Capitol-Limited", "Lake-Shore-Limited"],
		"lat": "41.4317",
		"lon": "-85.025"
	},
	{
		"id": "WEM",
		"name": "Wells",
		"code": "WEM",
		"city": "Wells",
		"stateShort": "ME",
		"stateLong": "Maine",
		"routes": ["Downeaster"],
		"lat": "43.3208",
		"lon": "-70.6122"
	},
	{
		"id": "WEN",
		"name": "Wenatchee Columbia",
		"code": "WEN",
		"city": "Wenatchee",
		"stateShort": "WA",
		"stateLong": "Washington",
		"routes": ["Empire-Builder"],
		"lat": "47.4208",
		"lon": "-120.3075"
	},
	{
		"id": "WGL",
		"name": "West Glacier",
		"code": "WGL",
		"city": "West Glacier",
		"stateShort": "MT",
		"stateLong": "Montana",
		"routes": ["Empire-Builder"],
		"lat": "48.4986",
		"lon": "-113.9717"
	},
	{
		"id": "WPB",
		"name": "West Palm Beach",
		"code": "WPB",
		"city": "West Palm Beach",
		"stateShort": "FL",
		"stateLong": "Florida",
		"routes": ["Silver-Meteor", "Silver-Star"],
		"lat": "26.7123",
		"lon": "-80.0623"
	},
	{
		"id": "WLY",
		"name": "Westerly",
		"code": "WLY",
		"city": "Westerly",
		"stateShort": "RI",
		"stateLong": "Rhode Island",
		"routes": ["Northeast-Regional"],
		"lat": "41.3811",
		"lon": "-71.83"
	},
	{
		"id": "WSP",
		"name": "Westport",
		"code": "WSP",
		"city": "Westport",
		"stateShort": "NY",
		"stateLong": "New York",
		"routes": ["Adirondack"],
		"lat": "44.1872",
		"lon": "-73.4519"
	},
	{
		"id": "WRJ",
		"name": "White River Junction",
		"code": "WRJ",
		"city": "White River Junction",
		"stateShort": "VT",
		"stateLong": "Vermont",
		"routes": ["Vermonter"],
		"lat": "43.6483",
		"lon": "-72.3178"
	},
	{
		"id": "WSS",
		"name": "White Sulphur Springs",
		"code": "WSS",
		"city": "White Sulfur Springs",
		"stateShort": "WV",
		"stateLong": "West Virginia",
		"routes": ["Cardinal"],
		"lat": "37.7853",
		"lon": "-80.3056"
	},
	{
		"id": "WFH",
		"name": "Whitefish",
		"code": "WFH",
		"city": "Whitefish",
		"stateShort": "MT",
		"stateLong": "Montana",
		"routes": ["Empire-Builder"],
		"lat": "48.4136",
		"lon": "-114.3356"
	},
	{
		"id": "WHL",
		"name": "Whitehall",
		"code": "WHL",
		"city": "Whitehall",
		"stateShort": "NY",
		"stateLong": "New York",
		"routes": ["Adirondack"],
		"lat": "43.5558",
		"lon": "-73.4033"
	},
	{
		"id": "WBG",
		"name": "Williamsburg",
		"code": "WBG",
		"city": "Williamsburg",
		"stateShort": "VA",
		"stateLong": "Virginia",
		"routes": ["Northeast-Regional"],
		"lat": "37.2756",
		"lon": "-76.7078"
	},
	{
		"id": "WTN",
		"name": "Williston",
		"code": "WTN",
		"city": "Williston",
		"stateShort": "ND",
		"stateLong": "North Dakota",
		"routes": ["Empire-Builder"],
		"lat": "48.1428",
		"lon": "-103.6211"
	},
	{
		"id": "WIL",
		"name": "Wilmington",
		"code": "WIL",
		"city": "Wilmington",
		"stateShort": "DE",
		"stateLong": "Delaware",
		"routes": [
			"Acela",
			"Cardinal",
			"Carolinian",
			"Crescent",
			"Northeast-Regional",
			"Palmetto",
			"Silver-Meteor",
			"Silver-Star",
			"Vermonter"
		],
		"lat": "39.7367",
		"lon": "-75.5511"
	},
	{
		"id": "WLN",
		"name": "Wilson",
		"code": "WLN",
		"city": "Wilson",
		"stateShort": "NC",
		"stateLong": "North Carolina",
		"routes": ["Carolinian", "Palmetto"],
		"lat": "35.7239",
		"lon": "-77.9083"
	},
	{
		"id": "WND",
		"name": "Windsor",
		"code": "WND",
		"city": "Windsor",
		"stateShort": "CT",
		"stateLong": "Connecticut",
		"routes": ["Hartford-Line", "Northeast-Regional", "Valley-Flyer"],
		"lat": "41.8521",
		"lon": "-72.6422"
	},
	{
		"id": "WNM",
		"name": "Windsor–Mt. Ascutney",
		"code": "WNM",
		"city": "Windsor",
		"stateShort": "VT",
		"stateLong": "Vermont",
		"routes": ["Vermonter"],
		"lat": "43.48",
		"lon": "-72.385"
	},
	{
		"id": "WNL",
		"name": "Windsor Locks",
		"code": "WNL",
		"city": "Windsor Locks",
		"stateShort": "CT",
		"stateLong": "Connecticut",
		"routes": [
			"Hartford-Line",
			"Northeast-Regional",
			"Valley-Flyer",
			"Vermonter"
		],
		"lat": "41.9139",
		"lon": "-72.6261"
	},
	{
		"id": "WNN",
		"name": "Winnemucca",
		"code": "WNN",
		"city": "Winnemucca",
		"stateShort": "NV",
		"stateLong": "Nevada",
		"routes": ["California-Zephyr"],
		"lat": "40.9694",
		"lon": "-117.7314"
	},
	{
		"id": "WIN",
		"name": "Winona",
		"code": "WIN",
		"city": "Winona",
		"stateShort": "MN",
		"stateLong": "Minnesota",
		"routes": ["Empire-Builder"],
		"lat": "44.0443",
		"lon": "-91.6401"
	},
	{
		"id": "WLO",
		"name": "Winslow",
		"code": "WLO",
		"city": "Winslow",
		"stateShort": "AZ",
		"stateLong": "Arizona",
		"routes": ["Southwest-Chief"],
		"lat": "35.0208",
		"lon": "-110.6947"
	},
	{
		"id": "WTH",
		"name": "Winter Haven",
		"code": "WTH",
		"city": "Winter Haven",
		"stateShort": "FL",
		"stateLong": "Florida",
		"routes": ["Silver-Meteor", "Silver-Star"],
		"lat": "28.0039",
		"lon": "-81.735"
	},
	{
		"id": "WPR",
		"name": "Winter Park Resort",
		"code": "WPR",
		"city": "Winter Park",
		"stateShort": "CO",
		"stateLong": "Colorado",
		"routes": ["Winter-Park-Express"],
		"lat": "39.8869",
		"lon": "-105.7625"
	},
	{
		"id": "WPK",
		"name": "Winter Park",
		"code": "WPK",
		"city": "Winter Park",
		"stateShort": "FL",
		"stateLong": "Florida",
		"routes": ["Silver-Meteor", "Silver-Star"],
		"lat": "28.5978",
		"lon": "-81.3519"
	},
	{
		"id": "WDL",
		"name": "Wisconsin Dells",
		"code": "WDL",
		"city": "Wisconsin Dells",
		"stateShort": "WI",
		"stateLong": "Wisconsin",
		"routes": ["Empire-Builder"],
		"lat": "43.6267",
		"lon": "-89.7775"
	},
	{
		"id": "WIH",
		"name": "Wishram",
		"code": "WIH",
		"city": "Wishram",
		"stateShort": "WA",
		"stateLong": "Washington",
		"routes": ["Empire-Builder"],
		"lat": "45.6575",
		"lon": "-120.9664"
	},
	{
		"id": "WOB",
		"name": "Woburn–Anderson",
		"code": "WOB",
		"city": "Woburn",
		"stateShort": "MA",
		"stateLong": "Massachusetts",
		"routes": ["Downeaster"],
		"lat": "42.5175",
		"lon": "-71.1439"
	},
	{
		"id": "WPT",
		"name": "Wolf Point",
		"code": "WPT",
		"city": "Wolf Point",
		"stateShort": "MT",
		"stateLong": "Montana",
		"routes": ["Empire-Builder"],
		"lat": "48.0914",
		"lon": "-105.6431"
	},
	{
		"id": "WDB",
		"name": "Woodbridge",
		"code": "WDB",
		"city": "Woodbridge",
		"stateShort": "VA",
		"stateLong": "Virginia",
		"routes": ["Northeast-Regional"],
		"lat": "38.6592",
		"lon": "-77.2481"
	},
	{
		"id": "WOR",
		"name": "Worcester",
		"code": "WOR",
		"city": "Worcester",
		"stateShort": "MA",
		"stateLong": "Massachusetts",
		"routes": ["Lake-Shore-Limited"],
		"lat": "42.2611",
		"lon": "-71.795"
	},
	{
		"id": "YAZ",
		"name": "Yazoo City",
		"code": "YAZ",
		"city": "Yazoo City",
		"stateShort": "MS",
		"stateLong": "Mississippi",
		"routes": ["City-of-New-Orleans"],
		"lat": "32.8483",
		"lon": "-90.4153"
	},
	{
		"id": "YEM",
		"name": "Yemassee",
		"code": "YEM",
		"city": "Yemassee",
		"stateShort": "SC",
		"stateLong": "South Carolina",
		"routes": ["Palmetto", "Silver-Meteor"],
		"lat": "32.6881",
		"lon": "-80.8469"
	},
	{
		"id": "YNY",
		"name": "Yonkers",
		"code": "YNY",
		"city": "Yonkers",
		"stateShort": "NY",
		"stateLong": "New York",
		"routes": [
			"Adirondack",
			"Berkshire-Flyer",
			"Empire-Service",
			"Ethan-Allen-Express",
			"Maple-Leaf"
		],
		"lat": "40.9356",
		"lon": "-73.9022"
	},
	{
		"id": "YUM",
		"name": "Yuma",
		"code": "YUM",
		"city": "Yuma",
		"stateShort": "AZ",
		"stateLong": "Arizona",
		"routes": ["Sunset-Limited", "Texas-Eagle"],
		"lat": "32.7231",
		"lon": "-114.6161"
	}
]
